[
  {
    "id": "USGS-01646563",
    "name": "MILL CREEK TRIB NR DALECARLIA RES AT WASHINGTON DC",
    "type": "Stream",
    "lat": 38.94555556,
    "lon": -77.1044444,
    "huc8": "02070008",
    "state": "DC",
    "county": "",
    "orgId": "USGS-MD",
    "orgName": "USGS Maryland Water Science Center",
    "resultCount": 0,
    "lastSampleDate": null
  },
  {
    "id": "USGS-01646565",
    "name": "EAST CREEK NR DALECARLIA RES AT WASHINGTON, DC",
    "type": "Stream",
    "lat": 38.93977778,
    "lon": -77.1053056,
    "huc8": "02070008",
    "state": "DC",
    "county": "",
    "orgId": "USGS-MD",
    "orgName": "USGS Maryland Water Science Center",
    "resultCount": 0,
    "lastSampleDate": null
  },
  {
    "id": "USGS-0164656550",
    "name": "EAST CREEK TRIB NR DALECARLIA RES AT WASHINGTON DC",
    "type": "Stream",
    "lat": 38.9397222,
    "lon": -77.10527778,
    "huc8": "02070008",
    "state": "DC",
    "county": "",
    "orgId": "USGS-MD",
    "orgName": "USGS Maryland Water Science Center",
    "resultCount": 0,
    "lastSampleDate": null
  },
  {
    "id": "USGS-01646566",
    "name": "EAST CREEK AT DALECARLIA RES AT WASHINGTON, DC",
    "type": "Stream",
    "lat": 38.94277778,
    "lon": -77.1085,
    "huc8": "02070008",
    "state": "DC",
    "county": "",
    "orgId": "USGS-MD",
    "orgName": "USGS Maryland Water Science Center",
    "resultCount": 0,
    "lastSampleDate": null
  },
  {
    "id": "USGS-01647505",
    "name": "POTOMAC RIVER TRIBUTARY AT WASHINGTON, DC",
    "type": "Stream",
    "lat": 38.92150014,
    "lon": -77.097756,
    "huc8": "02070010",
    "state": "DC",
    "county": "",
    "orgId": "USGS-MD",
    "orgName": "USGS Maryland Water Science Center",
    "resultCount": 0,
    "lastSampleDate": null
  },
  {
    "id": "USGS-01647595",
    "name": "POTOMAC RIVER AT KEY BRIDGE AT WASHINGTON, DC",
    "type": "Stream",
    "lat": 38.90233385,
    "lon": -77.06942209,
    "huc8": "02070010",
    "state": "DC",
    "county": "",
    "orgId": "USGS-MD",
    "orgName": "USGS Maryland Water Science Center",
    "resultCount": 37,
    "lastSampleDate": "2023-12-11"
  },
  {
    "id": "USGS-01647994",
    "name": "ROCK CREEK AT MD/DC BOUNDRY AT WASHINGTON DC",
    "type": "Stream",
    "lat": 38.98666667,
    "lon": -77.05277778,
    "huc8": "02070010",
    "state": "DC",
    "county": "",
    "orgId": "USGS-MD",
    "orgName": "USGS Maryland Water Science Center",
    "resultCount": 0,
    "lastSampleDate": null
  },
  {
    "id": "USGS-01647996",
    "name": "TRIB TO FENWICK BR AT RED BUD LANE, WASHINGTON DC",
    "type": "Stream",
    "lat": 38.99305556,
    "lon": -77.0447222,
    "huc8": "02070010",
    "state": "DC",
    "county": "",
    "orgId": "USGS-MD",
    "orgName": "USGS Maryland Water Science Center",
    "resultCount": 0,
    "lastSampleDate": null
  },
  {
    "id": "USGS-01647997",
    "name": "PORTAL BRANCH AT NORTH PORTAL DR, WASHINGTON, DC",
    "type": "Stream",
    "lat": 38.98944444,
    "lon": -77.0425,
    "huc8": "02070010",
    "state": "DC",
    "county": "",
    "orgId": "USGS-MD",
    "orgName": "USGS Maryland Water Science Center",
    "resultCount": 0,
    "lastSampleDate": null
  },
  {
    "id": "USGS-0164799789",
    "name": "FENWICK BRANCH ABOVE ROCK CREEK AT WASHINGTON DC",
    "type": "Stream",
    "lat": 38.98416667,
    "lon": -77.0422222,
    "huc8": "02070010",
    "state": "DC",
    "county": "",
    "orgId": "USGS-MD",
    "orgName": "USGS Maryland Water Science Center",
    "resultCount": 0,
    "lastSampleDate": null
  },
  {
    "id": "USGS-0164799790",
    "name": "STORM SEWER FL TO ROCK CR BL FENWICK BR WASH DC",
    "type": "Stream",
    "lat": 38.9836111,
    "lon": -77.0416667,
    "huc8": "02070010",
    "state": "DC",
    "county": "",
    "orgId": "USGS-MD",
    "orgName": "USGS Maryland Water Science Center",
    "resultCount": 0,
    "lastSampleDate": null
  },
  {
    "id": "USGS-01647998",
    "name": "ROCK CREEK BELOW WEST BEACH DRIVE WASHINGTON, DC",
    "type": "Stream",
    "lat": 38.98299915,
    "lon": -77.0399493,
    "huc8": "02070010",
    "state": "DC",
    "county": "",
    "orgId": "USGS-MD",
    "orgName": "USGS Maryland Water Science Center",
    "resultCount": 0,
    "lastSampleDate": null
  },
  {
    "id": "USGS-01648000",
    "name": "ROCK CREEK AT SHERRILL DRIVE WASHINGTON, DC",
    "type": "Stream",
    "lat": 38.9725,
    "lon": -77.04,
    "huc8": "02070010",
    "state": "DC",
    "county": "",
    "orgId": "USGS-MD",
    "orgName": "USGS Maryland Water Science Center",
    "resultCount": 0,
    "lastSampleDate": null
  },
  {
    "id": "USGS-01648001",
    "name": "Whittier Run above Rock Creek at Washington DC",
    "type": "Stream",
    "lat": 38.97194444,
    "lon": -77.0397222,
    "huc8": "02070010",
    "state": "DC",
    "county": "",
    "orgId": "USGS-MD",
    "orgName": "USGS Maryland Water Science Center",
    "resultCount": 0,
    "lastSampleDate": null
  },
  {
    "id": "USGS-01648002",
    "name": "Pinehurst Branch above Barnaby St at Washington DC",
    "type": "Stream",
    "lat": 38.9783333,
    "lon": -77.05888889,
    "huc8": "02070010",
    "state": "DC",
    "county": "",
    "orgId": "USGS-MD",
    "orgName": "USGS Maryland Water Science Center",
    "resultCount": 0,
    "lastSampleDate": null
  },
  {
    "id": "USGS-01648003",
    "name": "Pinehurst Br trib nr Barnaby St at Washington DC",
    "type": "Stream",
    "lat": 38.97805556,
    "lon": -77.05888889,
    "huc8": "02070010",
    "state": "DC",
    "county": "",
    "orgId": "USGS-MD",
    "orgName": "USGS Maryland Water Science Center",
    "resultCount": 0,
    "lastSampleDate": null
  },
  {
    "id": "USGS-01648004",
    "name": "PINEHURST BRANCH AT OREGON AVENUE WASHINGTON, DC",
    "type": "Stream",
    "lat": 38.9764159,
    "lon": -77.05172729,
    "huc8": "02070010",
    "state": "DC",
    "county": "",
    "orgId": "USGS-MD",
    "orgName": "USGS Maryland Water Science Center",
    "resultCount": 0,
    "lastSampleDate": null
  },
  {
    "id": "USGS-01648005",
    "name": "PINEHURST BRANCH AT BEACH DRIVE, WASHINGTON, DC",
    "type": "Stream",
    "lat": 38.97141667,
    "lon": -77.0437222,
    "huc8": "02070010",
    "state": "DC",
    "county": "",
    "orgId": "USGS-MD",
    "orgName": "USGS Maryland Water Science Center",
    "resultCount": 0,
    "lastSampleDate": null
  },
  {
    "id": "USGS-0164800550",
    "name": "Rock Creek trib near Bingham Dr at Washington DC",
    "type": "Stream",
    "lat": 38.96888889,
    "lon": -77.0469444,
    "huc8": "02070010",
    "state": "DC",
    "county": "",
    "orgId": "USGS-MD",
    "orgName": "USGS Maryland Water Science Center",
    "resultCount": 0,
    "lastSampleDate": null
  },
  {
    "id": "USGS-01648006",
    "name": "ROCK CREEK TRIBUTARY AT GOLF COURSE WASHINGTON, DC",
    "type": "Stream",
    "lat": 38.9668605,
    "lon": -77.0458938,
    "huc8": "02070010",
    "state": "DC",
    "county": "",
    "orgId": "USGS-MD",
    "orgName": "USGS Maryland Water Science Center",
    "resultCount": 0,
    "lastSampleDate": null
  },
  {
    "id": "USGS-01648010",
    "name": "ROCK CREEK AT JOYCE RD WASHINGTON, DC",
    "type": "Stream",
    "lat": 38.96016667,
    "lon": -77.0420556,
    "huc8": "02070010",
    "state": "DC",
    "county": "",
    "orgId": "USGS-MD",
    "orgName": "USGS Maryland Water Science Center",
    "resultCount": 883,
    "lastSampleDate": "2024-02-13"
  },
  {
    "id": "USGS-01648011",
    "name": "Luzon Branch above Rock Creek at Washington DC",
    "type": "Stream",
    "lat": 38.96169444,
    "lon": -77.04138889,
    "huc8": "02070010",
    "state": "DC",
    "county": "",
    "orgId": "USGS-MD",
    "orgName": "USGS Maryland Water Science Center",
    "resultCount": 6,
    "lastSampleDate": "2023-08-08"
  },
  {
    "id": "USGS-01648015",
    "name": "BROAD BRANCH AT WASHINGTON, DC",
    "type": "Stream",
    "lat": 38.95149968,
    "lon": -77.052755,
    "huc8": "02070010",
    "state": "DC",
    "county": "",
    "orgId": "USGS-MD",
    "orgName": "USGS Maryland Water Science Center",
    "resultCount": 0,
    "lastSampleDate": null
  },
  {
    "id": "USGS-0164801540",
    "name": "Broad Branch above Soapstone Valley at Wash DC",
    "type": "Stream",
    "lat": 38.94555556,
    "lon": -77.05138889,
    "huc8": "02070010",
    "state": "DC",
    "county": "",
    "orgId": "USGS-MD",
    "orgName": "USGS Maryland Water Science Center",
    "resultCount": 0,
    "lastSampleDate": null
  },
  {
    "id": "USGS-0164801550",
    "name": "Soapstone Valley trib to Broad Branch at Wash DC",
    "type": "Stream",
    "lat": 38.945,
    "lon": -77.0519444,
    "huc8": "02070010",
    "state": "DC",
    "county": "",
    "orgId": "USGS-MD",
    "orgName": "USGS Maryland Water Science Center",
    "resultCount": 0,
    "lastSampleDate": null
  },
  {
    "id": "USGS-01648100",
    "name": "Rock Creek above Piney Branch at Washington DC",
    "type": "Stream",
    "lat": 38.93527778,
    "lon": -77.04777778,
    "huc8": "02070010",
    "state": "DC",
    "county": "",
    "orgId": "USGS-MD",
    "orgName": "USGS Maryland Water Science Center",
    "resultCount": 0,
    "lastSampleDate": null
  },
  {
    "id": "USGS-01648200",
    "name": "Piney Branch above Rock Creek at Washinton DC",
    "type": "Stream",
    "lat": 38.93527778,
    "lon": -77.0469444,
    "huc8": "02070010",
    "state": "DC",
    "county": "",
    "orgId": "USGS-MD",
    "orgName": "USGS Maryland Water Science Center",
    "resultCount": 0,
    "lastSampleDate": null
  },
  {
    "id": "USGS-01648300",
    "name": "Rock Cr above Connecticut Av at Washington DC",
    "type": "Stream",
    "lat": 38.92305556,
    "lon": -77.0486111,
    "huc8": "02070010",
    "state": "DC",
    "county": "",
    "orgId": "USGS-MD",
    "orgName": "USGS Maryland Water Science Center",
    "resultCount": 0,
    "lastSampleDate": null
  },
  {
    "id": "USGS-01648390",
    "name": "Normanstone Creek above Rock Creek at WashingtonDC",
    "type": "Stream",
    "lat": 38.91888889,
    "lon": -77.0561111,
    "huc8": "02070010",
    "state": "DC",
    "county": "",
    "orgId": "USGS-MD",
    "orgName": "USGS Maryland Water Science Center",
    "resultCount": 0,
    "lastSampleDate": null
  },
  {
    "id": "USGS-01648450",
    "name": "Dumbarton Oaks trib above Rock Cr at Washington DC",
    "type": "Stream",
    "lat": 38.91555556,
    "lon": -77.0594444,
    "huc8": "02070010",
    "state": "DC",
    "county": "",
    "orgId": "USGS-MD",
    "orgName": "USGS Maryland Water Science Center",
    "resultCount": 0,
    "lastSampleDate": null
  },
  {
    "id": "USGS-01648500",
    "name": "Rock Creek below Dumbarton Oaks trib at Wash DC",
    "type": "Stream",
    "lat": 38.9147222,
    "lon": -77.0583333,
    "huc8": "02070010",
    "state": "DC",
    "county": "",
    "orgId": "USGS-MD",
    "orgName": "USGS Maryland Water Science Center",
    "resultCount": 0,
    "lastSampleDate": null
  },
  {
    "id": "USGS-01648998",
    "name": "ROCK CREEK ABOVE Q STREET WASHINGTON, DC",
    "type": "Stream",
    "lat": 38.9117226,
    "lon": -77.0516994,
    "huc8": "02070010",
    "state": "DC",
    "county": "",
    "orgId": "USGS-MD",
    "orgName": "USGS Maryland Water Science Center",
    "resultCount": 0,
    "lastSampleDate": null
  },
  {
    "id": "USGS-01649000",
    "name": "ROCK CREEK AT Q STREET, WASHINGTON  DC",
    "type": "Stream",
    "lat": 38.9112226,
    "lon": -77.0513661,
    "huc8": "02070010",
    "state": "DC",
    "county": "",
    "orgId": "USGS-MD",
    "orgName": "USGS Maryland Water Science Center",
    "resultCount": 0,
    "lastSampleDate": null
  },
  {
    "id": "USGS-01649003",
    "name": "Pipe inflow to Rock Cr below P St at Washington DC",
    "type": "Stream",
    "lat": 38.90888889,
    "lon": -77.05027778,
    "huc8": "02070010",
    "state": "DC",
    "county": "",
    "orgId": "USGS-MD",
    "orgName": "USGS Maryland Water Science Center",
    "resultCount": 0,
    "lastSampleDate": null
  },
  {
    "id": "USGS-01649010",
    "name": "Rock Creek above M Street at Washington DC",
    "type": "Stream",
    "lat": 38.90138889,
    "lon": -77.0583333,
    "huc8": "02070010",
    "state": "DC",
    "county": "",
    "orgId": "USGS-MD",
    "orgName": "USGS Maryland Water Science Center",
    "resultCount": 0,
    "lastSampleDate": null
  },
  {
    "id": "USGS-01649025",
    "name": "WASHINGTON CHANNEL AT WASHINGTON, DC",
    "type": "Stream: Canal",
    "lat": 38.8755833,
    "lon": -77.0250556,
    "huc8": "02070010",
    "state": "DC",
    "county": "",
    "orgId": "USGS-MD",
    "orgName": "USGS Maryland Water Science Center",
    "resultCount": 22,
    "lastSampleDate": "2023-09-26"
  },
  {
    "id": "USGS-01651740",
    "name": "NASH RUN AT WASHINGTON, DC",
    "type": "Stream",
    "lat": 38.9103333,
    "lon": -76.9421111,
    "huc8": "02070010",
    "state": "DC",
    "county": "",
    "orgId": "USGS-MD",
    "orgName": "USGS Maryland Water Science Center",
    "resultCount": 0,
    "lastSampleDate": null
  },
  {
    "id": "USGS-01651770",
    "name": "HICKEY RUN AT NATIONAL ARBORETUM AT WASHINGTON, DC",
    "type": "Stream",
    "lat": 38.9161111,
    "lon": -76.9688611,
    "huc8": "02070010",
    "state": "DC",
    "county": "",
    "orgId": "USGS-MD",
    "orgName": "USGS Maryland Water Science Center",
    "resultCount": 538,
    "lastSampleDate": "2024-03-07"
  },
  {
    "id": "USGS-01651780",
    "name": "HICKEY RUN AT WASHINGTON, DC",
    "type": "Stream",
    "lat": 38.91233384,
    "lon": -76.964975,
    "huc8": "02070010",
    "state": "DC",
    "county": "",
    "orgId": "USGS-MD",
    "orgName": "USGS Maryland Water Science Center",
    "resultCount": 0,
    "lastSampleDate": null
  },
  {
    "id": "USGS-01651793",
    "name": "WATTS BRANCH AT 50TH ST, WASHINGTON, DC",
    "type": "Stream",
    "lat": 38.89775,
    "lon": -76.9284167,
    "huc8": "02070010",
    "state": "DC",
    "county": "",
    "orgId": "USGS-MD",
    "orgName": "USGS Maryland Water Science Center",
    "resultCount": 2,
    "lastSampleDate": "2022-10-01"
  },
  {
    "id": "USGS-01651794",
    "name": "WATTS BRANCH AT 49TH ST, WASHINGTON DC",
    "type": "Stream",
    "lat": 38.8982222,
    "lon": -76.93225,
    "huc8": "02070010",
    "state": "DC",
    "county": "",
    "orgId": "USGS-MD",
    "orgName": "USGS Maryland Water Science Center",
    "resultCount": 2,
    "lastSampleDate": "2022-10-01"
  },
  {
    "id": "USGS-01651795",
    "name": "WATTS BRANCH AT BENNING ROAD, WASHINGTON, DC",
    "type": "Stream",
    "lat": 38.8978897,
    "lon": -76.93302958,
    "huc8": "02070010",
    "state": "DC",
    "county": "",
    "orgId": "USGS-MD",
    "orgName": "USGS Maryland Water Science Center",
    "resultCount": 0,
    "lastSampleDate": null
  },
  {
    "id": "USGS-01651800",
    "name": "WATTS BRANCH AT WASHINGTON, DC",
    "type": "Stream",
    "lat": 38.90127778,
    "lon": -76.94327778,
    "huc8": "02070010",
    "state": "DC",
    "county": "",
    "orgId": "USGS-MD",
    "orgName": "USGS Maryland Water Science Center",
    "resultCount": 532,
    "lastSampleDate": "2024-03-07"
  },
  {
    "id": "USGS-01651805",
    "name": "WATTS BRANCH NEAR WASHINGTON, DC",
    "type": "Stream",
    "lat": 38.9067784,
    "lon": -76.9488634,
    "huc8": "02070010",
    "state": "DC",
    "county": "",
    "orgId": "USGS-MD",
    "orgName": "USGS Maryland Water Science Center",
    "resultCount": 0,
    "lastSampleDate": null
  },
  {
    "id": "USGS-01651810",
    "name": "UNMED TRIB TO ANACOSTIA R BLW FT DUPONT AT WASH DC",
    "type": "Stream",
    "lat": 38.8821111,
    "lon": -76.964,
    "huc8": "02070010",
    "state": "DC",
    "county": "",
    "orgId": "USGS-MD",
    "orgName": "USGS Maryland Water Science Center",
    "resultCount": 0,
    "lastSampleDate": null
  },
  {
    "id": "USGS-01651812",
    "name": "ANACOSTIA RIVER AT ANACOSTIA PARK BOAT RAMP, DC",
    "type": "Stream: Tidal stream",
    "lat": 38.87991667,
    "lon": -76.9708333,
    "huc8": "02070010",
    "state": "DC",
    "county": "",
    "orgId": "USGS-MD",
    "orgName": "USGS Maryland Water Science Center",
    "resultCount": 873,
    "lastSampleDate": "2023-10-02"
  },
  {
    "id": "USGS-01651815",
    "name": "POPE BRANCH AT WASHINGTON, DC",
    "type": "Stream",
    "lat": 38.87344568,
    "lon": -76.9580302,
    "huc8": "02070010",
    "state": "DC",
    "county": "",
    "orgId": "USGS-MD",
    "orgName": "USGS Maryland Water Science Center",
    "resultCount": 0,
    "lastSampleDate": null
  },
  {
    "id": "USGS-01651817",
    "name": "POPE BRANCH AT FAIRLAWN AVE AT WASHINGTON, DC",
    "type": "Stream",
    "lat": 38.8776,
    "lon": -76.9666194,
    "huc8": "02070010",
    "state": "DC",
    "county": "",
    "orgId": "USGS-MD",
    "orgName": "USGS Maryland Water Science Center",
    "resultCount": 0,
    "lastSampleDate": null
  },
  {
    "id": "USGS-0165182550",
    "name": "TRIB TO ANACOSTIA R ABV GOOD HOPE ROAD AT WASH, DC",
    "type": "Stream",
    "lat": 38.86391667,
    "lon": -76.9765833,
    "huc8": "02070010",
    "state": "DC",
    "county": "",
    "orgId": "USGS-MD",
    "orgName": "USGS Maryland Water Science Center",
    "resultCount": 0,
    "lastSampleDate": null
  },
  {
    "id": "USGS-01651827",
    "name": "ANACOSTIA RIVER NR BUZZARD POINT AT WASHINGTON, DC",
    "type": "Stream: Tidal stream",
    "lat": 38.86516667,
    "lon": -77.0103333,
    "huc8": "02070010",
    "state": "DC",
    "county": "",
    "orgId": "USGS-MD",
    "orgName": "USGS Maryland Water Science Center",
    "resultCount": 11,
    "lastSampleDate": "2023-07-26"
  },
  {
    "id": "USGS-01651830",
    "name": "BLUE PLAINS WWT PLANT OUTFALL AT WASHINGTON, DC",
    "type": "Facility: Outfall",
    "lat": 38.81416667,
    "lon": -77.0266667,
    "huc8": "02070010",
    "state": "DC",
    "county": "",
    "orgId": "USGS-MD",
    "orgName": "USGS Maryland Water Science Center",
    "resultCount": 0,
    "lastSampleDate": null
  },
  {
    "id": "USGS-0165258860",
    "name": "OXON RUN AT WASHINGTON, DC",
    "type": "Stream",
    "lat": 38.8398351,
    "lon": -76.9849753,
    "huc8": "02070010",
    "state": "DC",
    "county": "",
    "orgId": "USGS-MD",
    "orgName": "USGS Maryland Water Science Center",
    "resultCount": 0,
    "lastSampleDate": null
  },
  {
    "id": "USGS-01652590",
    "name": "POTOMAC RIVER AT ALEXANDRIA, VA",
    "type": "Estuary",
    "lat": 38.79289139,
    "lon": -77.0371989,
    "huc8": "02070010",
    "state": "DC",
    "county": "",
    "orgId": "USGS-MD",
    "orgName": "USGS Maryland Water Science Center",
    "resultCount": 0,
    "lastSampleDate": null
  },
  {
    "id": "USGS-384852077014000",
    "name": "BLUE PLAINS SEWAGE TREATMENT PLANT",
    "type": "Stream",
    "lat": 38.81455769,
    "lon": -77.0274764,
    "huc8": "02070010",
    "state": "DC",
    "county": "",
    "orgId": "USGS-MD",
    "orgName": "USGS Maryland Water Science Center",
    "resultCount": 0,
    "lastSampleDate": null
  },
  {
    "id": "USGS-384852077020500",
    "name": "POTOMAC RIVER AT MARBURY POINT",
    "type": "Estuary",
    "lat": 38.81455768,
    "lon": -77.034421,
    "huc8": "02070010",
    "state": "DC",
    "county": "",
    "orgId": "USGS-MD",
    "orgName": "USGS Maryland Water Science Center",
    "resultCount": 0,
    "lastSampleDate": null
  },
  {
    "id": "USGS-385039077012600",
    "name": "POTOMAC RIVER AT GEISBORO POINT",
    "type": "Estuary",
    "lat": 38.8442794,
    "lon": -77.0219208,
    "huc8": "02070010",
    "state": "DC",
    "county": "",
    "orgId": "USGS-MD",
    "orgName": "USGS Maryland Water Science Center",
    "resultCount": 0,
    "lastSampleDate": null
  },
  {
    "id": "USGS-385138076585901",
    "name": "AC Aa   6",
    "type": "Well",
    "lat": 38.86066667,
    "lon": -76.98313889,
    "huc8": "02070010",
    "state": "DC",
    "county": "",
    "orgId": "USGS-MD",
    "orgName": "USGS Maryland Water Science Center",
    "resultCount": 0,
    "lastSampleDate": null
  },
  {
    "id": "USGS-385138076585902",
    "name": "AC Aa   7",
    "type": "Well",
    "lat": 38.86066667,
    "lon": -76.98313889,
    "huc8": "02070010",
    "state": "DC",
    "county": "",
    "orgId": "USGS-MD",
    "orgName": "USGS Maryland Water Science Center",
    "resultCount": 0,
    "lastSampleDate": null
  },
  {
    "id": "USGS-385141077015000",
    "name": "POTOMAC RIVER AT DANGERFIELD ISLAND",
    "type": "Estuary",
    "lat": 38.8615013,
    "lon": -77.0302544,
    "huc8": "02070010",
    "state": "DC",
    "county": "",
    "orgId": "USGS-MD",
    "orgName": "USGS Maryland Water Science Center",
    "resultCount": 0,
    "lastSampleDate": null
  },
  {
    "id": "USGS-385157076580301",
    "name": "AC Aa   2",
    "type": "Well",
    "lat": 38.86594444,
    "lon": -76.9675833,
    "huc8": "02070010",
    "state": "DC",
    "county": "",
    "orgId": "USGS-MD",
    "orgName": "USGS Maryland Water Science Center",
    "resultCount": 0,
    "lastSampleDate": null
  },
  {
    "id": "USGS-385225076590101",
    "name": "AC Aa   1",
    "type": "Well",
    "lat": 38.8736111,
    "lon": -76.9836111,
    "huc8": "02070010",
    "state": "DC",
    "county": "",
    "orgId": "USGS-MD",
    "orgName": "USGS Maryland Water Science Center",
    "resultCount": 0,
    "lastSampleDate": null
  },
  {
    "id": "USGS-385238076581501",
    "name": "WE Ca  29",
    "type": "Well",
    "lat": 38.8773333,
    "lon": -76.9709167,
    "huc8": "02070010",
    "state": "DC",
    "county": "",
    "orgId": "USGS-MD",
    "orgName": "USGS Maryland Water Science Center",
    "resultCount": 0,
    "lastSampleDate": null
  },
  {
    "id": "USGS-385241076580901",
    "name": "WE Ca 39",
    "type": "Well",
    "lat": 38.87828056,
    "lon": -76.9694194,
    "huc8": "02070010",
    "state": "DC",
    "county": "",
    "orgId": "USGS-MD",
    "orgName": "USGS Maryland Water Science Center",
    "resultCount": 0,
    "lastSampleDate": null
  },
  {
    "id": "USGS-385243076580901",
    "name": "WE Ca 40",
    "type": "Well",
    "lat": 38.87854167,
    "lon": -76.9691861,
    "huc8": "02070010",
    "state": "DC",
    "county": "",
    "orgId": "USGS-MD",
    "orgName": "USGS Maryland Water Science Center",
    "resultCount": 0,
    "lastSampleDate": null
  },
  {
    "id": "USGS-385245076583501",
    "name": "WE Ca  34",
    "type": "Well",
    "lat": 38.8793333,
    "lon": -76.9764167,
    "huc8": "02070010",
    "state": "DC",
    "county": "",
    "orgId": "USGS-MD",
    "orgName": "USGS Maryland Water Science Center",
    "resultCount": 0,
    "lastSampleDate": null
  },
  {
    "id": "USGS-385252076572801",
    "name": "WE Cb   8",
    "type": "Well",
    "lat": 38.88119444,
    "lon": -76.95777778,
    "huc8": "02070010",
    "state": "DC",
    "county": "",
    "orgId": "USGS-MD",
    "orgName": "USGS Maryland Water Science Center",
    "resultCount": 0,
    "lastSampleDate": null
  },
  {
    "id": "USGS-385257077001101",
    "name": "WW Cc 38",
    "type": "Well",
    "lat": 38.8824722,
    "lon": -77.0031306,
    "huc8": "02070010",
    "state": "DC",
    "county": "",
    "orgId": "USGS-MD",
    "orgName": "USGS Maryland Water Science Center",
    "resultCount": 0,
    "lastSampleDate": null
  },
  {
    "id": "USGS-385315077031800",
    "name": "POTOMAC RIVER AT MEMORIAL BRIDGE",
    "type": "Estuary",
    "lat": 38.8884452,
    "lon": -77.0524772,
    "huc8": "02070010",
    "state": "DC",
    "county": "",
    "orgId": "USGS-MD",
    "orgName": "USGS Maryland Water Science Center",
    "resultCount": 0,
    "lastSampleDate": null
  },
  {
    "id": "USGS-385327076544801",
    "name": "WE Cc   3",
    "type": "Well",
    "lat": 38.8908333,
    "lon": -76.9134722,
    "huc8": "02070010",
    "state": "DC",
    "county": "",
    "orgId": "USGS-MD",
    "orgName": "USGS Maryland Water Science Center",
    "resultCount": 0,
    "lastSampleDate": null
  },
  {
    "id": "USGS-385332076564101",
    "name": "WE Cb  11",
    "type": "Well",
    "lat": 38.89225,
    "lon": -76.94477778,
    "huc8": "02070010",
    "state": "DC",
    "county": "",
    "orgId": "USGS-MD",
    "orgName": "USGS Maryland Water Science Center",
    "resultCount": 0,
    "lastSampleDate": null
  },
  {
    "id": "USGS-385332076564102",
    "name": "WE Cb  12",
    "type": "Well",
    "lat": 38.89225,
    "lon": -76.94477778,
    "huc8": "02070010",
    "state": "DC",
    "county": "",
    "orgId": "USGS-MD",
    "orgName": "USGS Maryland Water Science Center",
    "resultCount": 0,
    "lastSampleDate": null
  },
  {
    "id": "USGS-385332076594701",
    "name": "WE Ca  32",
    "type": "Well",
    "lat": 38.89216667,
    "lon": -76.9964167,
    "huc8": "02070010",
    "state": "DC",
    "county": "",
    "orgId": "USGS-MD",
    "orgName": "USGS Maryland Water Science Center",
    "resultCount": 0,
    "lastSampleDate": null
  },
  {
    "id": "USGS-385349076592801",
    "name": "WE Ca  33",
    "type": "Well",
    "lat": 38.89716667,
    "lon": -76.9911944,
    "huc8": "02070010",
    "state": "DC",
    "county": "",
    "orgId": "USGS-MD",
    "orgName": "USGS Maryland Water Science Center",
    "resultCount": 0,
    "lastSampleDate": null
  },
  {
    "id": "USGS-385354076555901",
    "name": "WE Cb  10",
    "type": "Well",
    "lat": 38.8983333,
    "lon": -76.9330556,
    "huc8": "02070010",
    "state": "DC",
    "county": "",
    "orgId": "USGS-MD",
    "orgName": "USGS Maryland Water Science Center",
    "resultCount": 0,
    "lastSampleDate": null
  },
  {
    "id": "USGS-385436076573601",
    "name": "WE Ca  42",
    "type": "Well",
    "lat": 38.90986944,
    "lon": -76.9599472,
    "huc8": "02070010",
    "state": "DC",
    "county": "",
    "orgId": "USGS-MD",
    "orgName": "USGS Maryland Water Science Center",
    "resultCount": 0,
    "lastSampleDate": null
  },
  {
    "id": "USGS-385443076562801",
    "name": "WE Cb   5",
    "type": "Well",
    "lat": 38.9120833,
    "lon": -76.9412222,
    "huc8": "02070010",
    "state": "DC",
    "county": "",
    "orgId": "USGS-MD",
    "orgName": "USGS Maryland Water Science Center",
    "resultCount": 0,
    "lastSampleDate": null
  },
  {
    "id": "USGS-385443076562802",
    "name": "WE Cb   6",
    "type": "Well",
    "lat": 38.9120833,
    "lon": -76.9412222,
    "huc8": "02070010",
    "state": "DC",
    "county": "",
    "orgId": "USGS-MD",
    "orgName": "USGS Maryland Water Science Center",
    "resultCount": 0,
    "lastSampleDate": null
  },
  {
    "id": "USGS-385504076563801",
    "name": "WE Bb   3",
    "type": "Well",
    "lat": 38.91766667,
    "lon": -76.9438056,
    "huc8": "02070010",
    "state": "DC",
    "county": "",
    "orgId": "USGS-MD",
    "orgName": "USGS Maryland Water Science Center",
    "resultCount": 0,
    "lastSampleDate": null
  },
  {
    "id": "USGS-385504076563802",
    "name": "WE Bb   4",
    "type": "Well",
    "lat": 38.91766667,
    "lon": -76.9438056,
    "huc8": "02070010",
    "state": "DC",
    "county": "",
    "orgId": "USGS-MD",
    "orgName": "USGS Maryland Water Science Center",
    "resultCount": 0,
    "lastSampleDate": null
  },
  {
    "id": "USGS-385519077012601",
    "name": "WW Bc   8",
    "type": "Well",
    "lat": 38.92202778,
    "lon": -77.02413889,
    "huc8": "02070010",
    "state": "DC",
    "county": "",
    "orgId": "USGS-MD",
    "orgName": "USGS Maryland Water Science Center",
    "resultCount": 0,
    "lastSampleDate": null
  },
  {
    "id": "USGS-385527077000701",
    "name": "WW Bc   9",
    "type": "Well",
    "lat": 38.92438889,
    "lon": -77.00213889,
    "huc8": "02070010",
    "state": "DC",
    "county": "",
    "orgId": "USGS-MD",
    "orgName": "USGS Maryland Water Science Center",
    "resultCount": 0,
    "lastSampleDate": null
  },
  {
    "id": "USGS-385534076582101",
    "name": "WE Ba  10",
    "type": "Well",
    "lat": 38.9262222,
    "lon": -76.9726111,
    "huc8": "02070010",
    "state": "DC",
    "county": "",
    "orgId": "USGS-MD",
    "orgName": "USGS Maryland Water Science Center",
    "resultCount": 0,
    "lastSampleDate": null
  },
  {
    "id": "USGS-385604077053801",
    "name": "WW Ba  46",
    "type": "Well",
    "lat": 38.93444444,
    "lon": -77.09388889,
    "huc8": "02070008",
    "state": "DC",
    "county": "",
    "orgId": "USGS-MD",
    "orgName": "USGS Maryland Water Science Center",
    "resultCount": 0,
    "lastSampleDate": null
  },
  {
    "id": "USGS-385605077053501",
    "name": "WW Ba  42",
    "type": "Well",
    "lat": 38.93491667,
    "lon": -77.09252778,
    "huc8": "02070008",
    "state": "DC",
    "county": "",
    "orgId": "USGS-MD",
    "orgName": "USGS Maryland Water Science Center",
    "resultCount": 0,
    "lastSampleDate": null
  },
  {
    "id": "USGS-385605077053502",
    "name": "WW Ba  43",
    "type": "Well",
    "lat": 38.93491667,
    "lon": -77.09252778,
    "huc8": "02070008",
    "state": "DC",
    "county": "",
    "orgId": "USGS-MD",
    "orgName": "USGS Maryland Water Science Center",
    "resultCount": 0,
    "lastSampleDate": null
  },
  {
    "id": "USGS-385605077053503",
    "name": "WW Ba  44",
    "type": "Well",
    "lat": 38.93491667,
    "lon": -77.09252778,
    "huc8": "02070008",
    "state": "DC",
    "county": "",
    "orgId": "USGS-MD",
    "orgName": "USGS Maryland Water Science Center",
    "resultCount": 0,
    "lastSampleDate": null
  },
  {
    "id": "USGS-385605077053901",
    "name": "SV-MP-02 35 to 44 ft",
    "type": "Well: Multiple wells",
    "lat": 38.93469444,
    "lon": -77.0940556,
    "huc8": "02070008",
    "state": "DC",
    "county": "",
    "orgId": "USGS-MD",
    "orgName": "USGS Maryland Water Science Center",
    "resultCount": 0,
    "lastSampleDate": null
  },
  {
    "id": "USGS-385605077053902",
    "name": "SV-MP-02 49 to 54 ft",
    "type": "Well: Multiple wells",
    "lat": 38.93469444,
    "lon": -77.0940556,
    "huc8": "02070008",
    "state": "DC",
    "county": "",
    "orgId": "USGS-MD",
    "orgName": "USGS Maryland Water Science Center",
    "resultCount": 0,
    "lastSampleDate": null
  },
  {
    "id": "USGS-385605077053903",
    "name": "SV-MP-02 56 to 71 ft",
    "type": "Well: Multiple wells",
    "lat": 38.93469444,
    "lon": -77.0940556,
    "huc8": "02070008",
    "state": "DC",
    "county": "",
    "orgId": "USGS-MD",
    "orgName": "USGS Maryland Water Science Center",
    "resultCount": 0,
    "lastSampleDate": null
  },
  {
    "id": "USGS-385605077053904",
    "name": "SV-MP-02 73 to 77 ft",
    "type": "Well: Multiple wells",
    "lat": 38.93469444,
    "lon": -77.0940556,
    "huc8": "02070008",
    "state": "DC",
    "county": "",
    "orgId": "USGS-MD",
    "orgName": "USGS Maryland Water Science Center",
    "resultCount": 0,
    "lastSampleDate": null
  },
  {
    "id": "USGS-385605077053905",
    "name": "SV-MP-02 96 to 102 ft",
    "type": "Well: Multiple wells",
    "lat": 38.93469444,
    "lon": -77.0940556,
    "huc8": "02070008",
    "state": "DC",
    "county": "",
    "orgId": "USGS-MD",
    "orgName": "USGS Maryland Water Science Center",
    "resultCount": 0,
    "lastSampleDate": null
  },
  {
    "id": "USGS-385605077053906",
    "name": "SV-MP-02 105 to 114 ft",
    "type": "Well: Multiple wells",
    "lat": 38.93469444,
    "lon": -77.0940556,
    "huc8": "02070008",
    "state": "DC",
    "county": "",
    "orgId": "USGS-MD",
    "orgName": "USGS Maryland Water Science Center",
    "resultCount": 0,
    "lastSampleDate": null
  },
  {
    "id": "USGS-385605077053907",
    "name": "SV-MP-02 123 to 129 ft",
    "type": "Well: Multiple wells",
    "lat": 38.93469444,
    "lon": -77.0940556,
    "huc8": "02070008",
    "state": "DC",
    "county": "",
    "orgId": "USGS-MD",
    "orgName": "USGS Maryland Water Science Center",
    "resultCount": 0,
    "lastSampleDate": null
  },
  {
    "id": "USGS-385605077053908",
    "name": "SV-MP-02 145 to 160 ft",
    "type": "Well: Multiple wells",
    "lat": 38.93469444,
    "lon": -77.0940556,
    "huc8": "02070008",
    "state": "DC",
    "county": "",
    "orgId": "USGS-MD",
    "orgName": "USGS Maryland Water Science Center",
    "resultCount": 0,
    "lastSampleDate": null
  },
  {
    "id": "USGS-385606076584101",
    "name": "WE Ba   9",
    "type": "Well",
    "lat": 38.93513889,
    "lon": -76.9781667,
    "huc8": "02070010",
    "state": "DC",
    "county": "",
    "orgId": "USGS-MD",
    "orgName": "USGS Maryland Water Science Center",
    "resultCount": 0,
    "lastSampleDate": null
  },
  {
    "id": "USGS-385606077053301",
    "name": "WW Ba  40",
    "type": "Well",
    "lat": 38.93488889,
    "lon": -77.0926667,
    "huc8": "02070008",
    "state": "DC",
    "county": "",
    "orgId": "USGS-MD",
    "orgName": "USGS Maryland Water Science Center",
    "resultCount": 0,
    "lastSampleDate": null
  },
  {
    "id": "USGS-385606077053302",
    "name": "WW Ba  41",
    "type": "Well",
    "lat": 38.93488889,
    "lon": -77.0926667,
    "huc8": "02070008",
    "state": "DC",
    "county": "",
    "orgId": "USGS-MD",
    "orgName": "USGS Maryland Water Science Center",
    "resultCount": 0,
    "lastSampleDate": null
  },
  {
    "id": "USGS-385606077053901",
    "name": "WW Ba  45",
    "type": "Well",
    "lat": 38.93491667,
    "lon": -77.09413889,
    "huc8": "02070008",
    "state": "DC",
    "county": "",
    "orgId": "USGS-MD",
    "orgName": "USGS Maryland Water Science Center",
    "resultCount": 0,
    "lastSampleDate": null
  },
  {
    "id": "USGS-385609077055301",
    "name": "WW Ba 39",
    "type": "Well",
    "lat": 38.9358333,
    "lon": -77.0980556,
    "huc8": "02070008",
    "state": "DC",
    "county": "",
    "orgId": "USGS-MD",
    "orgName": "USGS Maryland Water Science Center",
    "resultCount": 0,
    "lastSampleDate": null
  },
  {
    "id": "USGS-385615077063501",
    "name": "WW Ba 31",
    "type": "Well",
    "lat": 38.93745278,
    "lon": -77.10992778,
    "huc8": "02070008",
    "state": "DC",
    "county": "",
    "orgId": "USGS-MD",
    "orgName": "USGS Maryland Water Science Center",
    "resultCount": 0,
    "lastSampleDate": null
  },
  {
    "id": "USGS-385619077020701",
    "name": "WW Bc  10",
    "type": "Well",
    "lat": 38.93869444,
    "lon": -77.0353611,
    "huc8": "02070010",
    "state": "DC",
    "county": "",
    "orgId": "USGS-MD",
    "orgName": "USGS Maryland Water Science Center",
    "resultCount": 0,
    "lastSampleDate": null
  },
  {
    "id": "USGS-385619077063601",
    "name": "Spring 1 at Dalecarlia Reservoir",
    "type": "Spring",
    "lat": 38.9386111,
    "lon": -77.11,
    "huc8": "02070008",
    "state": "DC",
    "county": "",
    "orgId": "USGS-MD",
    "orgName": "USGS Maryland Water Science Center",
    "resultCount": 0,
    "lastSampleDate": null
  },
  {
    "id": "USGS-385620077062201",
    "name": "SW-7",
    "type": "Stream",
    "lat": 38.93888889,
    "lon": -77.1061111,
    "huc8": "02070008",
    "state": "DC",
    "county": "",
    "orgId": "USGS-MD",
    "orgName": "USGS Maryland Water Science Center",
    "resultCount": 0,
    "lastSampleDate": null
  },
  {
    "id": "USGS-385627077064101",
    "name": "WW Ba 32",
    "type": "Well",
    "lat": 38.94080556,
    "lon": -77.11127778,
    "huc8": "02070008",
    "state": "DC",
    "county": "",
    "orgId": "USGS-MD",
    "orgName": "USGS Maryland Water Science Center",
    "resultCount": 0,
    "lastSampleDate": null
  },
  {
    "id": "USGS-385629077062701",
    "name": "WW Ba 21",
    "type": "Well",
    "lat": 38.94127778,
    "lon": -77.10752778,
    "huc8": "02070008",
    "state": "DC",
    "county": "",
    "orgId": "USGS-MD",
    "orgName": "USGS Maryland Water Science Center",
    "resultCount": 0,
    "lastSampleDate": null
  },
  {
    "id": "USGS-385630077061901",
    "name": "WW Ba 22",
    "type": "Well",
    "lat": 38.94163889,
    "lon": -77.1053056,
    "huc8": "02070008",
    "state": "DC",
    "county": "",
    "orgId": "USGS-MD",
    "orgName": "USGS Maryland Water Science Center",
    "resultCount": 0,
    "lastSampleDate": null
  },
  {
    "id": "USGS-385631077062901",
    "name": "WW Ba 18",
    "type": "Well",
    "lat": 38.94191667,
    "lon": -77.1080556,
    "huc8": "02070008",
    "state": "DC",
    "county": "",
    "orgId": "USGS-MD",
    "orgName": "USGS Maryland Water Science Center",
    "resultCount": 0,
    "lastSampleDate": null
  },
  {
    "id": "USGS-385634077062701",
    "name": "WW Ba 16",
    "type": "Well",
    "lat": 38.94269444,
    "lon": -77.1074722,
    "huc8": "02070008",
    "state": "DC",
    "county": "",
    "orgId": "USGS-MD",
    "orgName": "USGS Maryland Water Science Center",
    "resultCount": 0,
    "lastSampleDate": null
  },
  {
    "id": "USGS-385634077063201",
    "name": "Res-1",
    "type": "Stream",
    "lat": 38.94277778,
    "lon": -77.10888889,
    "huc8": "02070008",
    "state": "DC",
    "county": "",
    "orgId": "USGS-MD",
    "orgName": "USGS Maryland Water Science Center",
    "resultCount": 0,
    "lastSampleDate": null
  },
  {
    "id": "USGS-385635077063101",
    "name": "WW Ba 11",
    "type": "Well: Collector or Ranney type well",
    "lat": 38.943,
    "lon": -77.1087222,
    "huc8": "02070008",
    "state": "DC",
    "county": "",
    "orgId": "USGS-MD",
    "orgName": "USGS Maryland Water Science Center",
    "resultCount": 0,
    "lastSampleDate": null
  },
  {
    "id": "USGS-385637077062201",
    "name": "WW Ba 14",
    "type": "Well",
    "lat": 38.94352778,
    "lon": -77.1061111,
    "huc8": "02070008",
    "state": "DC",
    "county": "",
    "orgId": "USGS-MD",
    "orgName": "USGS Maryland Water Science Center",
    "resultCount": 0,
    "lastSampleDate": null
  },
  {
    "id": "USGS-385644077061101",
    "name": "WW Ba  28",
    "type": "Well",
    "lat": 38.94555556,
    "lon": -77.1030556,
    "huc8": "02070008",
    "state": "DC",
    "county": "",
    "orgId": "USGS-MD",
    "orgName": "USGS Maryland Water Science Center",
    "resultCount": 0,
    "lastSampleDate": null
  },
  {
    "id": "USGS-385649076584201",
    "name": "WE Ba  11",
    "type": "Well",
    "lat": 38.94688889,
    "lon": -76.9784444,
    "huc8": "02070010",
    "state": "DC",
    "county": "",
    "orgId": "USGS-MD",
    "orgName": "USGS Maryland Water Science Center",
    "resultCount": 0,
    "lastSampleDate": null
  },
  {
    "id": "USGS-385707077021801",
    "name": "WW Bc  11",
    "type": "Well",
    "lat": 38.9518333,
    "lon": -77.0383056,
    "huc8": "02070010",
    "state": "DC",
    "county": "",
    "orgId": "USGS-MD",
    "orgName": "USGS Maryland Water Science Center",
    "resultCount": 0,
    "lastSampleDate": null
  },
  {
    "id": "USGS-385929077020901",
    "name": "WW Ac   8",
    "type": "Well",
    "lat": 38.9914722,
    "lon": -77.0357222,
    "huc8": "02070010",
    "state": "DC",
    "county": "",
    "orgId": "USGS-MD",
    "orgName": "USGS Maryland Water Science Center",
    "resultCount": 0,
    "lastSampleDate": null
  },
  {
    "id": "USGS-385716077031201",
    "name": "WEST SPRING, DC",
    "type": "Stream",
    "lat": 38.95444444,
    "lon": -77.05277778,
    "huc8": "02070010",
    "state": "DC",
    "county": "",
    "orgId": "USGS-VA",
    "orgName": "USGS Virginia Water Science Center",
    "resultCount": 0,
    "lastSampleDate": null
  },
  {
    "id": "USGS-385718077030101",
    "name": "MAINTENANCE YARD STREAM, WASHINGTON, DC",
    "type": "Stream",
    "lat": 38.9558333,
    "lon": -77.0530556,
    "huc8": "02070010",
    "state": "DC",
    "county": "",
    "orgId": "USGS-VA",
    "orgName": "USGS Virginia Water Science Center",
    "resultCount": 0,
    "lastSampleDate": null
  },
  {
    "id": "USGS-385725077023801",
    "name": "PICNIC 21, DC",
    "type": "Stream",
    "lat": 38.95694444,
    "lon": -77.04388889,
    "huc8": "02070010",
    "state": "DC",
    "county": "",
    "orgId": "USGS-VA",
    "orgName": "USGS Virginia Water Science Center",
    "resultCount": 0,
    "lastSampleDate": null
  },
  {
    "id": "USGS-385730077023001",
    "name": "MAINTENANCE POND, WASHINGTON, DC",
    "type": "Lake, Reservoir, Impoundment",
    "lat": 38.958444,
    "lon": -77.0413659,
    "huc8": "02070010",
    "state": "DC",
    "county": "",
    "orgId": "USGS-VA",
    "orgName": "USGS Virginia Water Science Center",
    "resultCount": 0,
    "lastSampleDate": null
  },
  {
    "id": "USGS-385755077023001",
    "name": "FAIRWAY18, DC",
    "type": "Stream",
    "lat": 38.96527778,
    "lon": -77.0416667,
    "huc8": "02070010",
    "state": "DC",
    "county": "",
    "orgId": "USGS-VA",
    "orgName": "USGS Virginia Water Science Center",
    "resultCount": 0,
    "lastSampleDate": null
  },
  {
    "id": "USGS-385759077024301",
    "name": "GOLF COURSE I, DC",
    "type": "Stream",
    "lat": 38.96666667,
    "lon": -77.04638889,
    "huc8": "02070010",
    "state": "DC",
    "county": "",
    "orgId": "USGS-VA",
    "orgName": "USGS Virginia Water Science Center",
    "resultCount": 0,
    "lastSampleDate": null
  },
  {
    "id": "USGS-385813077030801",
    "name": "BINGHAM/OREGON",
    "type": "Stream",
    "lat": 38.97027778,
    "lon": -77.0525,
    "huc8": "02070010",
    "state": "DC",
    "county": "",
    "orgId": "USGS-VA",
    "orgName": "USGS Virginia Water Science Center",
    "resultCount": 0,
    "lastSampleDate": null
  },
  {
    "id": "USGS-385817077021301",
    "name": "WHITTIER, DC",
    "type": "Stream",
    "lat": 38.97166667,
    "lon": -77.0369444,
    "huc8": "02070010",
    "state": "DC",
    "county": "",
    "orgId": "USGS-VA",
    "orgName": "USGS Virginia Water Science Center",
    "resultCount": 0,
    "lastSampleDate": null
  },
  {
    "id": "USGS-385836077031501",
    "name": "BEECH/OREGON, DC",
    "type": "Stream",
    "lat": 38.97666667,
    "lon": -77.0530556,
    "huc8": "02070010",
    "state": "DC",
    "county": "",
    "orgId": "USGS-VA",
    "orgName": "USGS Virginia Water Science Center",
    "resultCount": 0,
    "lastSampleDate": null
  },
  {
    "id": "USGS-385841077023501",
    "name": "RILEY SPRINGS, DC",
    "type": "Lake, Reservoir, Impoundment",
    "lat": 38.9783333,
    "lon": -77.0425,
    "huc8": "02070010",
    "state": "DC",
    "county": "",
    "orgId": "USGS-VA",
    "orgName": "USGS Virginia Water Science Center",
    "resultCount": 0,
    "lastSampleDate": null
  },
  {
    "id": "USGS-385846077021601",
    "name": "16TH STREET, DC",
    "type": "Stream",
    "lat": 38.97944444,
    "lon": -77.0369444,
    "huc8": "02070010",
    "state": "DC",
    "county": "",
    "orgId": "USGS-VA",
    "orgName": "USGS Virginia Water Science Center",
    "resultCount": 0,
    "lastSampleDate": null
  },
  {
    "id": "USGS-385901077030101",
    "name": "DEERPRINT RUN, DC",
    "type": "Stream",
    "lat": 38.98166667,
    "lon": -77.0508333,
    "huc8": "02070010",
    "state": "DC",
    "county": "",
    "orgId": "USGS-VA",
    "orgName": "USGS Virginia Water Science Center",
    "resultCount": 0,
    "lastSampleDate": null
  },
  {
    "id": "USGS-385903077024101",
    "name": "WEST BEECH, DC",
    "type": "Lake, Reservoir, Impoundment",
    "lat": 38.98416667,
    "lon": -77.0447222,
    "huc8": "02070010",
    "state": "DC",
    "county": "",
    "orgId": "USGS-VA",
    "orgName": "USGS Virginia Water Science Center",
    "resultCount": 0,
    "lastSampleDate": null
  },
  {
    "id": "USGS-385906077025801",
    "name": "WEIR POND A, DC",
    "type": "Lake, Reservoir, Impoundment",
    "lat": 38.985,
    "lon": -77.0491667,
    "huc8": "02070010",
    "state": "DC",
    "county": "",
    "orgId": "USGS-VA",
    "orgName": "USGS Virginia Water Science Center",
    "resultCount": 0,
    "lastSampleDate": null
  },
  {
    "id": "USGS-385907077024901",
    "name": "PARKSIDE, DC",
    "type": "Lake, Reservoir, Impoundment",
    "lat": 38.98527778,
    "lon": -77.0469444,
    "huc8": "02070010",
    "state": "DC",
    "county": "",
    "orgId": "USGS-VA",
    "orgName": "USGS Virginia Water Science Center",
    "resultCount": 0,
    "lastSampleDate": null
  },
  {
    "id": "11NPSWRD_WQX-NACE_AN_11THST",
    "name": "ANACOSTIA RIVER UNDERNEATH 11TH STREET BRIDGE",
    "type": "Estuary",
    "lat": 38.8711667,
    "lon": -76.9893611,
    "huc8": "02070010",
    "state": "DC",
    "county": "",
    "orgId": "11NPSWRD_WQX",
    "orgName": "National Park Service Water Resources Division",
    "resultCount": 0,
    "lastSampleDate": null
  },
  {
    "id": "11NPSWRD_WQX-NACE_AN_BENNING",
    "name": "ANACOSTIA RIVER UNDERNEATH BENNING STREET BRIDGE",
    "type": "Estuary",
    "lat": 38.89725,
    "lon": -76.9622222,
    "huc8": "02070010",
    "state": "DC",
    "county": "",
    "orgId": "11NPSWRD_WQX",
    "orgName": "National Park Service Water Resources Division",
    "resultCount": 0,
    "lastSampleDate": null
  },
  {
    "id": "11NPSWRD_WQX-NACE_AN_EASTCAP",
    "name": "ANACOSTIA RIVER UNDER EAST CAPITAL SREET BRIDGE",
    "type": "Estuary",
    "lat": 38.8900833,
    "lon": -76.9635278,
    "huc8": "02070010",
    "state": "DC",
    "county": "",
    "orgId": "11NPSWRD_WQX",
    "orgName": "National Park Service Water Resources Division",
    "resultCount": 0,
    "lastSampleDate": null
  },
  {
    "id": "11NPSWRD_WQX-NACE_AN_KINGN",
    "name": "KINGMAN LAKE AT THE GOLF COURSE BRIDGE",
    "type": "Estuary",
    "lat": 38.9071111,
    "lon": -76.9584444,
    "huc8": "02070010",
    "state": "DC",
    "county": "",
    "orgId": "11NPSWRD_WQX",
    "orgName": "National Park Service Water Resources Division",
    "resultCount": 0,
    "lastSampleDate": null
  },
  {
    "id": "11NPSWRD_WQX-NACE_AN_KINGS",
    "name": "KINGMAN LAKE SOUTH OF EAST CAPITAL SREET BRIDGE",
    "type": "Estuary",
    "lat": 38.8881111,
    "lon": -76.9680833,
    "huc8": "02070010",
    "state": "DC",
    "county": "",
    "orgId": "11NPSWRD_WQX",
    "orgName": "National Park Service Water Resources Division",
    "resultCount": 0,
    "lastSampleDate": null
  },
  {
    "id": "11NPSWRD_WQX-NACE_AN_KNMARSH",
    "name": "ANACOSTIA RIVER NORTH OF KENILWORTH MARSH",
    "type": "Estuary",
    "lat": 38.9146667,
    "lon": -76.9516111,
    "huc8": "02070010",
    "state": "DC",
    "county": "",
    "orgId": "11NPSWRD_WQX",
    "orgName": "National Park Service Water Resources Division",
    "resultCount": 0,
    "lastSampleDate": null
  },
  {
    "id": "11NPSWRD_WQX-NACE_AN_NEWYAVE",
    "name": "ANACOSTIA RIVER UNDER NEW YORK AVENUE BRIDGE",
    "type": "Estuary",
    "lat": 38.9183611,
    "lon": -76.9424167,
    "huc8": "02070010",
    "state": "DC",
    "county": "",
    "orgId": "11NPSWRD_WQX",
    "orgName": "National Park Service Water Resources Division",
    "resultCount": 0,
    "lastSampleDate": null
  },
  {
    "id": "11NPSWRD_WQX-NACE_AN_PENNAVE",
    "name": "ANACOSTIA RIVER UNDER SOUSA BRIDGE",
    "type": "Estuary",
    "lat": 38.8770278,
    "lon": -76.978,
    "huc8": "02070010",
    "state": "DC",
    "county": "",
    "orgId": "11NPSWRD_WQX",
    "orgName": "National Park Service Water Resources Division",
    "resultCount": 0,
    "lastSampleDate": null
  },
  {
    "id": "11NPSWRD_WQX-NACE_AN_POTHAIN",
    "name": "POTOMAC RIVER SOUTH OF HAIN'S POINT",
    "type": "Estuary",
    "lat": 38.8512778,
    "lon": -77.0217222,
    "huc8": "02070010",
    "state": "DC",
    "county": "",
    "orgId": "11NPSWRD_WQX",
    "orgName": "National Park Service Water Resources Division",
    "resultCount": 0,
    "lastSampleDate": null
  },
  {
    "id": "11NPSWRD_WQX-NACE_AN_POTOMAC",
    "name": "POTOMAC RIVER NORTHWEST OF HAIN'S POINT",
    "type": "Estuary",
    "lat": 38.8585,
    "lon": -77.0268333,
    "huc8": "02070010",
    "state": "DC",
    "county": "",
    "orgId": "11NPSWRD_WQX",
    "orgName": "National Park Service Water Resources Division",
    "resultCount": 0,
    "lastSampleDate": null
  },
  {
    "id": "11NPSWRD_WQX-NACE_AN_RRBRIDG",
    "name": "ANACOSTIA RIVER UNDERNEATH THE RAILROAD BRIDGE",
    "type": "Estuary",
    "lat": 38.8805278,
    "lon": -76.9722222,
    "huc8": "02070010",
    "state": "DC",
    "county": "",
    "orgId": "11NPSWRD_WQX",
    "orgName": "National Park Service Water Resources Division",
    "resultCount": 0,
    "lastSampleDate": null
  },
  {
    "id": "11NPSWRD_WQX-NACE_AN_SOUTHCA",
    "name": "ANACOSTIA RIVER UNDERNEATH DOUGLASS BRIDGE",
    "type": "Estuary",
    "lat": 38.8692222,
    "lon": -77.0052222,
    "huc8": "02070010",
    "state": "DC",
    "county": "",
    "orgId": "11NPSWRD_WQX",
    "orgName": "National Park Service Water Resources Division",
    "resultCount": 0,
    "lastSampleDate": null
  },
  {
    "id": "11NPSWRD_WQX-NACE_AN_WASHCH",
    "name": "WASHINGTON CHANNEL NORTH OF GREENLEAF POINT",
    "type": "Estuary",
    "lat": 38.8662222,
    "lon": -77.0194444,
    "huc8": "02070010",
    "state": "DC",
    "county": "",
    "orgId": "11NPSWRD_WQX",
    "orgName": "National Park Service Water Resources Division",
    "resultCount": 0,
    "lastSampleDate": null
  },
  {
    "id": "11NPSWRD_WQX-NACE_HE_1",
    "name": "SOUTHWEST PART OF KENILWORTH MARSH",
    "type": "Wetland Riverine-Emergent",
    "lat": 38.9104167,
    "lon": -76.9476111,
    "huc8": "02070010",
    "state": "DC",
    "county": "",
    "orgId": "11NPSWRD_WQX",
    "orgName": "National Park Service Water Resources Division",
    "resultCount": 0,
    "lastSampleDate": null
  },
  {
    "id": "11NPSWRD_WQX-NACE_HE_2",
    "name": "NORTHEAST PART OF KENILWORTH MARSH",
    "type": "Wetland Riverine-Emergent",
    "lat": 38.9146111,
    "lon": -76.9445,
    "huc8": "02070010",
    "state": "DC",
    "county": "",
    "orgId": "11NPSWRD_WQX",
    "orgName": "National Park Service Water Resources Division",
    "resultCount": 0,
    "lastSampleDate": null
  },
  {
    "id": "11NPSWRD_WQX-NACE_HE_3",
    "name": "ANACOSTIA RIVER NORTH OF KENILWORTH MARSH",
    "type": "River/Stream",
    "lat": 38.9149167,
    "lon": -76.9508056,
    "huc8": "02070010",
    "state": "DC",
    "county": "",
    "orgId": "11NPSWRD_WQX",
    "orgName": "National Park Service Water Resources Division",
    "resultCount": 0,
    "lastSampleDate": null
  },
  {
    "id": "11NPSWRD_WQX-NACE_HE_4",
    "name": "ANACOSTIA RIVER SOUTH OF BENNING ROAD BRIDGE",
    "type": "River/Stream",
    "lat": 38.8966944,
    "lon": -76.9618333,
    "huc8": "02070010",
    "state": "DC",
    "county": "",
    "orgId": "11NPSWRD_WQX",
    "orgName": "National Park Service Water Resources Division",
    "resultCount": 0,
    "lastSampleDate": null
  },
  {
    "id": "11NPSWRD_WQX-NACE_HE_5",
    "name": "LILY POND IN SOUTHEAST KENILWORTH AQUATIC GARDEN",
    "type": "Reservoir",
    "lat": 38.91275,
    "lon": -76.9428889,
    "huc8": "02070010",
    "state": "DC",
    "county": "",
    "orgId": "11NPSWRD_WQX",
    "orgName": "National Park Service Water Resources Division",
    "resultCount": 0,
    "lastSampleDate": null
  },
  {
    "id": "11NPSWRD_WQX-NACE_HE_KLN",
    "name": "KINGMAN LAKE NORTH",
    "type": "Estuary",
    "lat": 38.9035,
    "lon": -76.9643333,
    "huc8": "02070010",
    "state": "DC",
    "county": "",
    "orgId": "11NPSWRD_WQX",
    "orgName": "National Park Service Water Resources Division",
    "resultCount": 0,
    "lastSampleDate": null
  },
  {
    "id": "11NPSWRD_WQX-NACE_HE_KLS",
    "name": "KINGMAN LAKE SOUTH",
    "type": "Estuary",
    "lat": 38.8949722,
    "lon": -76.9664444,
    "huc8": "02070010",
    "state": "DC",
    "county": "",
    "orgId": "11NPSWRD_WQX",
    "orgName": "National Park Service Water Resources Division",
    "resultCount": 0,
    "lastSampleDate": null
  },
  {
    "id": "11NPSWRD_WQX-NACE_KM_1",
    "name": "ANACOSTIA RIVER NORTH OF KENILWORTH MARSH",
    "type": "Estuary",
    "lat": 38.9146667,
    "lon": -76.9510278,
    "huc8": "02070010",
    "state": "DC",
    "county": "",
    "orgId": "11NPSWRD_WQX",
    "orgName": "National Park Service Water Resources Division",
    "resultCount": 0,
    "lastSampleDate": null
  },
  {
    "id": "11NPSWRD_WQX-NACE_KM_2",
    "name": "NORTHWEST PART OF KENILWORTH MARSH",
    "type": "Wetland Riverine-Emergent",
    "lat": 38.9127222,
    "lon": -76.9505278,
    "huc8": "02070010",
    "state": "DC",
    "county": "",
    "orgId": "11NPSWRD_WQX",
    "orgName": "National Park Service Water Resources Division",
    "resultCount": 0,
    "lastSampleDate": null
  },
  {
    "id": "11NPSWRD_WQX-NACE_KM_3",
    "name": "SOUTHERN PART OF KENILWORTH MARSH",
    "type": "Wetland Riverine-Emergent",
    "lat": 38.9103889,
    "lon": -76.9473056,
    "huc8": "02070010",
    "state": "DC",
    "county": "",
    "orgId": "11NPSWRD_WQX",
    "orgName": "National Park Service Water Resources Division",
    "resultCount": 0,
    "lastSampleDate": null
  },
  {
    "id": "11NPSWRD_WQX-NACE_KM_4",
    "name": "NORTHEAST PART OF KENILWORTH MARSH",
    "type": "Wetland Riverine-Emergent",
    "lat": 38.9145,
    "lon": -76.9447778,
    "huc8": "02070010",
    "state": "DC",
    "county": "",
    "orgId": "11NPSWRD_WQX",
    "orgName": "National Park Service Water Resources Division",
    "resultCount": 0,
    "lastSampleDate": null
  },
  {
    "id": "11NPSWRD_WQX-NACE_KM_5",
    "name": "WEST LILY POND IN KENILWORTH AQUATIC GARDENS",
    "type": "Reservoir",
    "lat": 38.9129444,
    "lon": -76.9446389,
    "huc8": "02070010",
    "state": "DC",
    "county": "",
    "orgId": "11NPSWRD_WQX",
    "orgName": "National Park Service Water Resources Division",
    "resultCount": 0,
    "lastSampleDate": null
  },
  {
    "id": "11NPSWRD_WQX-NACE_KM_6",
    "name": "EAST LILY POND IN KENILWORTH AQUATIC GARDENS",
    "type": "Reservoir",
    "lat": 38.9127222,
    "lon": -76.9432778,
    "huc8": "02070010",
    "state": "DC",
    "county": "",
    "orgId": "11NPSWRD_WQX",
    "orgName": "National Park Service Water Resources Division",
    "resultCount": 0,
    "lastSampleDate": null
  },
  {
    "id": "11NPSWRD_WQX-NACE_KM_7",
    "name": "KINGMAN LAKE SOUTH OF EAST CAPITAL ST BRIDGE",
    "type": "Estuary",
    "lat": 38.8881389,
    "lon": -76.9679444,
    "huc8": "02070010",
    "state": "DC",
    "county": "",
    "orgId": "11NPSWRD_WQX",
    "orgName": "National Park Service Water Resources Division",
    "resultCount": 0,
    "lastSampleDate": null
  },
  {
    "id": "11NPSWRD_WQX-NAMA_NPS_CG_1",
    "name": "Constitution Gardens Lake - West End",
    "type": "Lake",
    "lat": 38.891,
    "lon": -77.045,
    "huc8": "02070010",
    "state": "DC",
    "county": "",
    "orgId": "11NPSWRD_WQX",
    "orgName": "National Park Service Water Resources Division",
    "resultCount": 0,
    "lastSampleDate": null
  },
  {
    "id": "11NPSWRD_WQX-NAMA_NPS_CG_2",
    "name": "Constitution Gardens Lake at Bridge to Signers Island",
    "type": "Lake",
    "lat": 38.891,
    "lon": -77.043,
    "huc8": "02070010",
    "state": "DC",
    "county": "",
    "orgId": "11NPSWRD_WQX",
    "orgName": "National Park Service Water Resources Division",
    "resultCount": 0,
    "lastSampleDate": null
  },
  {
    "id": "11NPSWRD_WQX-NAMA_NPS_CG_3",
    "name": "Constitution Gardens Lake - East End",
    "type": "Lake",
    "lat": 38.891,
    "lon": -77.041,
    "huc8": "02070010",
    "state": "DC",
    "county": "",
    "orgId": "11NPSWRD_WQX",
    "orgName": "National Park Service Water Resources Division",
    "resultCount": 0,
    "lastSampleDate": null
  },
  {
    "id": "11NPSWRD_WQX-NAMA_NPS_PR",
    "name": "Potomac River at Intersection of Buckeye Dr. and Ohio Dr.",
    "type": "Estuary",
    "lat": 38.875,
    "lon": -77.034,
    "huc8": "02070010",
    "state": "DC",
    "county": "",
    "orgId": "11NPSWRD_WQX",
    "orgName": "National Park Service Water Resources Division",
    "resultCount": 0,
    "lastSampleDate": null
  },
  {
    "id": "11NPSWRD_WQX-NAMA_NPS_RP_1",
    "name": "Reflecting Pool - East End at Center",
    "type": "Lake",
    "lat": 38.889,
    "lon": -77.041,
    "huc8": "02070010",
    "state": "DC",
    "county": "",
    "orgId": "11NPSWRD_WQX",
    "orgName": "National Park Service Water Resources Division",
    "resultCount": 0,
    "lastSampleDate": null
  },
  {
    "id": "11NPSWRD_WQX-NAMA_NPS_RP_2",
    "name": "Reflecting Pool - West End at Center",
    "type": "Lake",
    "lat": 38.889,
    "lon": -77.049,
    "huc8": "02070010",
    "state": "DC",
    "county": "",
    "orgId": "11NPSWRD_WQX",
    "orgName": "National Park Service Water Resources Division",
    "resultCount": 0,
    "lastSampleDate": null
  },
  {
    "id": "11NPSWRD_WQX-NAMA_NPS_TB_1",
    "name": "Tidal Basin in Half Moon near Survey Lodge",
    "type": "Estuary",
    "lat": 38.888,
    "lon": -77.039,
    "huc8": "02070010",
    "state": "DC",
    "county": "",
    "orgId": "11NPSWRD_WQX",
    "orgName": "National Park Service Water Resources Division",
    "resultCount": 0,
    "lastSampleDate": null
  },
  {
    "id": "11NPSWRD_WQX-NAMA_NPS_TB_2",
    "name": "Tidal Basin at End of Paddleboat Floating Dock",
    "type": "Estuary",
    "lat": 38.885,
    "lon": -77.035,
    "huc8": "02070010",
    "state": "DC",
    "county": "",
    "orgId": "11NPSWRD_WQX",
    "orgName": "National Park Service Water Resources Division",
    "resultCount": 0,
    "lastSampleDate": null
  },
  {
    "id": "11NPSWRD_WQX-NAMA_NPS_TB_3",
    "name": "Tidal Basin at Old West Basin Dr and Independence",
    "type": "Estuary",
    "lat": 38.886,
    "lon": -77.045,
    "huc8": "02070010",
    "state": "DC",
    "county": "",
    "orgId": "11NPSWRD_WQX",
    "orgName": "National Park Service Water Resources Division",
    "resultCount": 0,
    "lastSampleDate": null
  },
  {
    "id": "11NPSWRD_WQX-NAMA_NPS_WC",
    "name": "Washington Channel SE of Case Bridge",
    "type": "Estuary",
    "lat": 38.88,
    "lon": -77.031,
    "huc8": "02070010",
    "state": "DC",
    "county": "",
    "orgId": "11NPSWRD_WQX",
    "orgName": "National Park Service Water Resources Division",
    "resultCount": 0,
    "lastSampleDate": null
  },
  {
    "id": "11NPSWRD_WQX-NCRN_NACE_FTDU",
    "name": "Fort Dupont Stream",
    "type": "River/Stream",
    "lat": 38.8813318,
    "lon": -76.9573304,
    "huc8": "02070010",
    "state": "DC",
    "county": "",
    "orgId": "11NPSWRD_WQX",
    "orgName": "National Park Service Water Resources Division",
    "resultCount": 0,
    "lastSampleDate": null
  },
  {
    "id": "11NPSWRD_WQX-NCRN_ROCR_BAKE",
    "name": "Battery Kemble Creek",
    "type": "River/Stream",
    "lat": 38.920435,
    "lon": -77.099492,
    "huc8": "02070010",
    "state": "DC",
    "county": "",
    "orgId": "11NPSWRD_WQX",
    "orgName": "National Park Service Water Resources Division",
    "resultCount": 0,
    "lastSampleDate": null
  },
  {
    "id": "11NPSWRD_WQX-NCRN_ROCR_BRBR",
    "name": "Broad Branch",
    "type": "River/Stream",
    "lat": 38.944996,
    "lon": -77.050367,
    "huc8": "02070010",
    "state": "DC",
    "county": "",
    "orgId": "11NPSWRD_WQX",
    "orgName": "National Park Service Water Resources Division",
    "resultCount": 0,
    "lastSampleDate": null
  },
  {
    "id": "11NPSWRD_WQX-NCRN_ROCR_DUOA",
    "name": "Dumbarton Oaks",
    "type": "River/Stream",
    "lat": 38.915898,
    "lon": -77.059156,
    "huc8": "02070010",
    "state": "DC",
    "county": "",
    "orgId": "11NPSWRD_WQX",
    "orgName": "National Park Service Water Resources Division",
    "resultCount": 0,
    "lastSampleDate": null
  },
  {
    "id": "11NPSWRD_WQX-NCRN_ROCR_EGWA",
    "name": "Rock Creek @ Edgewater Stables",
    "type": "River/Stream",
    "lat": 38.920722,
    "lon": -77.0499048,
    "huc8": "02070010",
    "state": "DC",
    "county": "",
    "orgId": "11NPSWRD_WQX",
    "orgName": "National Park Service Water Resources Division",
    "resultCount": 0,
    "lastSampleDate": null
  },
  {
    "id": "11NPSWRD_WQX-NCRN_ROCR_FEBR",
    "name": "Fenwick Branch",
    "type": "River/Stream",
    "lat": 38.984841,
    "lon": -77.042077,
    "huc8": "02070010",
    "state": "DC",
    "county": "",
    "orgId": "11NPSWRD_WQX",
    "orgName": "National Park Service Water Resources Division",
    "resultCount": 0,
    "lastSampleDate": null
  },
  {
    "id": "11NPSWRD_WQX-NCRN_ROCR_HACR",
    "name": "Hazen Creek",
    "type": "River/Stream",
    "lat": 38.93831,
    "lon": -77.051441,
    "huc8": "02070010",
    "state": "DC",
    "county": "",
    "orgId": "11NPSWRD_WQX",
    "orgName": "National Park Service Water Resources Division",
    "resultCount": 0,
    "lastSampleDate": null
  },
  {
    "id": "11NPSWRD_WQX-NCRN_ROCR_KLVA",
    "name": "Klingle Valley",
    "type": "River/Stream",
    "lat": 38.933409,
    "lon": -77.051813,
    "huc8": "02070010",
    "state": "DC",
    "county": "",
    "orgId": "11NPSWRD_WQX",
    "orgName": "National Park Service Water Resources Division",
    "resultCount": 0,
    "lastSampleDate": null
  },
  {
    "id": "11NPSWRD_WQX-NCRN_ROCR_LUBR",
    "name": "Luzon Branch",
    "type": "River/Stream",
    "lat": 38.961766,
    "lon": -77.041633,
    "huc8": "02070010",
    "state": "DC",
    "county": "",
    "orgId": "11NPSWRD_WQX",
    "orgName": "National Park Service Water Resources Division",
    "resultCount": 0,
    "lastSampleDate": null
  },
  {
    "id": "11NPSWRD_WQX-NCRN_ROCR_NOST",
    "name": "Normanstone Branch",
    "type": "River/Stream",
    "lat": 38.919225,
    "lon": -77.056078,
    "huc8": "02070010",
    "state": "DC",
    "county": "",
    "orgId": "11NPSWRD_WQX",
    "orgName": "National Park Service Water Resources Division",
    "resultCount": 0,
    "lastSampleDate": null
  },
  {
    "id": "11NPSWRD_WQX-NCRN_ROCR_PHBR",
    "name": "Pinehurst Branch",
    "type": "River/Stream",
    "lat": 38.972044,
    "lon": -77.04388,
    "huc8": "02070010",
    "state": "DC",
    "county": "",
    "orgId": "11NPSWRD_WQX",
    "orgName": "National Park Service Water Resources Division",
    "resultCount": 0,
    "lastSampleDate": null
  },
  {
    "id": "11NPSWRD_WQX-NCRN_ROCR_PYBR",
    "name": "Piney Branch",
    "type": "River/Stream",
    "lat": 38.935526,
    "lon": -77.046789,
    "huc8": "02070010",
    "state": "DC",
    "county": "",
    "orgId": "11NPSWRD_WQX",
    "orgName": "National Park Service Water Resources Division",
    "resultCount": 0,
    "lastSampleDate": null
  },
  {
    "id": "11NPSWRD_WQX-NCRN_ROCR_ROC3",
    "name": "Rock Creek @ DUOA",
    "type": "River/Stream",
    "lat": 38.915649,
    "lon": -77.058959,
    "huc8": "02070010",
    "state": "DC",
    "county": "",
    "orgId": "11NPSWRD_WQX",
    "orgName": "National Park Service Water Resources Division",
    "resultCount": 0,
    "lastSampleDate": null
  },
  {
    "id": "11NPSWRD_WQX-NCRN_ROCR_ROCR",
    "name": "Rock Creek above confluence with Fenwick Branch",
    "type": "River/Stream",
    "lat": 38.9840777,
    "lon": -77.0429805,
    "huc8": "02070010",
    "state": "DC",
    "county": "",
    "orgId": "11NPSWRD_WQX",
    "orgName": "National Park Service Water Resources Division",
    "resultCount": 0,
    "lastSampleDate": null
  },
  {
    "id": "11NPSWRD_WQX-NCRN_ROCR_SVPS",
    "name": "Soapstone Valley Stream",
    "type": "River/Stream",
    "lat": 38.945251,
    "lon": -77.05176,
    "huc8": "02070010",
    "state": "DC",
    "county": "",
    "orgId": "11NPSWRD_WQX",
    "orgName": "National Park Service Water Resources Division",
    "resultCount": 0,
    "lastSampleDate": null
  },
  {
    "id": "21VASWCB-1APOT113.49",
    "name": "14TH STREET BRIDGE",
    "type": "River/Stream",
    "lat": 38.8742,
    "lon": -77.0403,
    "huc8": "02070010",
    "state": "DC",
    "county": "",
    "orgId": "21VASWCB",
    "orgName": "VIRGINIA DEPARTMENT OF ENVIRONMENTAL QUALITY",
    "resultCount": 0,
    "lastSampleDate": null
  },
  {
    "id": "21VASWCB-1APOT119.82",
    "name": "Chain Bridge",
    "type": "River/Stream",
    "lat": 38.9301,
    "lon": -77.1167,
    "huc8": "02070010",
    "state": "DC",
    "county": "",
    "orgId": "21VASWCB",
    "orgName": "VIRGINIA DEPARTMENT OF ENVIRONMENTAL QUALITY",
    "resultCount": 0,
    "lastSampleDate": null
  },
  {
    "id": "21VASWCB-PMS10",
    "name": "East side of Francis S. Key Bridge",
    "type": "Estuary",
    "lat": 38.9022,
    "lon": -77.0697,
    "huc8": "02070010",
    "state": "DC",
    "county": "",
    "orgId": "21VASWCB",
    "orgName": "VIRGINIA DEPARTMENT OF ENVIRONMENTAL QUALITY",
    "resultCount": 509,
    "lastSampleDate": "2025-12-08"
  },
  {
    "id": "CBP_WQX-01648010",
    "name": "01648010",
    "type": "River/Stream",
    "lat": 38.96035,
    "lon": -77.04217,
    "huc8": "02070010",
    "state": "DC",
    "county": "",
    "orgId": "CBP_WQX",
    "orgName": "Chesapeake Bay Program (CBP)",
    "resultCount": 0,
    "lastSampleDate": null
  },
  {
    "id": "CBP_WQX-01651770",
    "name": "01651770",
    "type": "River/Stream",
    "lat": 38.91603,
    "lon": -76.96856,
    "huc8": "02070010",
    "state": "DC",
    "county": "",
    "orgId": "CBP_WQX",
    "orgName": "Chesapeake Bay Program (CBP)",
    "resultCount": 0,
    "lastSampleDate": null
  },
  {
    "id": "CBP_WQX-01651800",
    "name": "01651800",
    "type": "River/Stream",
    "lat": 38.90122,
    "lon": -76.94304,
    "huc8": "02070010",
    "state": "DC",
    "county": "",
    "orgId": "CBP_WQX",
    "orgName": "Chesapeake Bay Program (CBP)",
    "resultCount": 0,
    "lastSampleDate": null
  },
  {
    "id": "CBP_WQX-1648010",
    "name": "1648010",
    "type": "River/Stream",
    "lat": 38.96035,
    "lon": -77.04217,
    "huc8": "02070010",
    "state": "DC",
    "county": "",
    "orgId": "CBP_WQX",
    "orgName": "Chesapeake Bay Program (CBP)",
    "resultCount": 0,
    "lastSampleDate": null
  },
  {
    "id": "CBP_WQX-1651770",
    "name": "1651770",
    "type": "River/Stream",
    "lat": 38.91603,
    "lon": -76.96856,
    "huc8": "02070010",
    "state": "DC",
    "county": "",
    "orgId": "CBP_WQX",
    "orgName": "Chesapeake Bay Program (CBP)",
    "resultCount": 0,
    "lastSampleDate": null
  },
  {
    "id": "CBP_WQX-1651800",
    "name": "1651800",
    "type": "River/Stream",
    "lat": 38.90122,
    "lon": -76.94304,
    "huc8": "02070010",
    "state": "DC",
    "county": "",
    "orgId": "CBP_WQX",
    "orgName": "Chesapeake Bay Program (CBP)",
    "resultCount": 0,
    "lastSampleDate": null
  },
  {
    "id": "CBP_WQX-AAG01",
    "name": "AAG01",
    "type": "River/Stream",
    "lat": 38.914,
    "lon": -76.94886,
    "huc8": "02070010",
    "state": "DC",
    "county": "",
    "orgId": "CBP_WQX",
    "orgName": "Chesapeake Bay Program (CBP)",
    "resultCount": 0,
    "lastSampleDate": null
  },
  {
    "id": "CBP_WQX-AAG02",
    "name": "AAG02",
    "type": "River/Stream",
    "lat": 38.914,
    "lon": -76.9422,
    "huc8": "02070010",
    "state": "DC",
    "county": "",
    "orgId": "CBP_WQX",
    "orgName": "Chesapeake Bay Program (CBP)",
    "resultCount": 0,
    "lastSampleDate": null
  },
  {
    "id": "CBP_WQX-ANA01",
    "name": "ANA01",
    "type": "River/Stream",
    "lat": 38.91817,
    "lon": -76.94164,
    "huc8": "02070010",
    "state": "DC",
    "county": "",
    "orgId": "CBP_WQX",
    "orgName": "Chesapeake Bay Program (CBP)",
    "resultCount": 0,
    "lastSampleDate": null
  },
  {
    "id": "CBP_WQX-ANA02",
    "name": "ANA02",
    "type": "River/Stream",
    "lat": 38.91567,
    "lon": -76.94525,
    "huc8": "02070010",
    "state": "DC",
    "county": "",
    "orgId": "CBP_WQX",
    "orgName": "Chesapeake Bay Program (CBP)",
    "resultCount": 0,
    "lastSampleDate": null
  },
  {
    "id": "CBP_WQX-ANA03",
    "name": "ANA03",
    "type": "River/Stream",
    "lat": 38.91483,
    "lon": -76.94997,
    "huc8": "02070010",
    "state": "DC",
    "county": "",
    "orgId": "CBP_WQX",
    "orgName": "Chesapeake Bay Program (CBP)",
    "resultCount": 0,
    "lastSampleDate": null
  },
  {
    "id": "CBP_WQX-ANA04",
    "name": "ANA04",
    "type": "River/Stream",
    "lat": 38.91289,
    "lon": -76.95303,
    "huc8": "02070010",
    "state": "DC",
    "county": "",
    "orgId": "CBP_WQX",
    "orgName": "Chesapeake Bay Program (CBP)",
    "resultCount": 0,
    "lastSampleDate": null
  },
  {
    "id": "CBP_WQX-ANA05",
    "name": "ANA05",
    "type": "River/Stream",
    "lat": 38.90928,
    "lon": -76.95581,
    "huc8": "02070010",
    "state": "DC",
    "county": "",
    "orgId": "CBP_WQX",
    "orgName": "Chesapeake Bay Program (CBP)",
    "resultCount": 0,
    "lastSampleDate": null
  },
  {
    "id": "CBP_WQX-ANA06",
    "name": "ANA06",
    "type": "River/Stream",
    "lat": 38.90567,
    "lon": -76.95803,
    "huc8": "02070010",
    "state": "DC",
    "county": "",
    "orgId": "CBP_WQX",
    "orgName": "Chesapeake Bay Program (CBP)",
    "resultCount": 0,
    "lastSampleDate": null
  },
  {
    "id": "CBP_WQX-ANA07",
    "name": "ANA07",
    "type": "River/Stream",
    "lat": 38.90206,
    "lon": -76.96025,
    "huc8": "02070010",
    "state": "DC",
    "county": "",
    "orgId": "CBP_WQX",
    "orgName": "Chesapeake Bay Program (CBP)",
    "resultCount": 0,
    "lastSampleDate": null
  },
  {
    "id": "CBP_WQX-ANA08",
    "name": "ANA08",
    "type": "River/Stream",
    "lat": 38.89872,
    "lon": -76.9622,
    "huc8": "02070010",
    "state": "DC",
    "county": "",
    "orgId": "CBP_WQX",
    "orgName": "Chesapeake Bay Program (CBP)",
    "resultCount": 0,
    "lastSampleDate": null
  },
  {
    "id": "CBP_WQX-ANA09",
    "name": "ANA09",
    "type": "River/Stream",
    "lat": 38.89511,
    "lon": -76.9622,
    "huc8": "02070010",
    "state": "DC",
    "county": "",
    "orgId": "CBP_WQX",
    "orgName": "Chesapeake Bay Program (CBP)",
    "resultCount": 0,
    "lastSampleDate": null
  },
  {
    "id": "CBP_WQX-ANA10",
    "name": "ANA10",
    "type": "River/Stream",
    "lat": 38.89095,
    "lon": -76.96303,
    "huc8": "02070010",
    "state": "DC",
    "county": "",
    "orgId": "CBP_WQX",
    "orgName": "Chesapeake Bay Program (CBP)",
    "resultCount": 0,
    "lastSampleDate": null
  },
  {
    "id": "CBP_WQX-ANA11",
    "name": "ANA11",
    "type": "River/Stream",
    "lat": 38.884,
    "lon": -76.96886,
    "huc8": "02070010",
    "state": "DC",
    "county": "",
    "orgId": "CBP_WQX",
    "orgName": "Chesapeake Bay Program (CBP)",
    "resultCount": 0,
    "lastSampleDate": null
  },
  {
    "id": "CBP_WQX-ANA12",
    "name": "ANA12",
    "type": "River/Stream",
    "lat": 38.884,
    "lon": -76.96886,
    "huc8": "02070010",
    "state": "DC",
    "county": "",
    "orgId": "CBP_WQX",
    "orgName": "Chesapeake Bay Program (CBP)",
    "resultCount": 0,
    "lastSampleDate": null
  },
  {
    "id": "CBP_WQX-ANA13",
    "name": "ANA13",
    "type": "River/Stream",
    "lat": 38.87734,
    "lon": -76.97192,
    "huc8": "02070010",
    "state": "DC",
    "county": "",
    "orgId": "CBP_WQX",
    "orgName": "Chesapeake Bay Program (CBP)",
    "resultCount": 0,
    "lastSampleDate": null
  },
  {
    "id": "CBP_WQX-ANA14",
    "name": "ANA14",
    "type": "River/Stream",
    "lat": 38.87734,
    "lon": -76.97553,
    "huc8": "02070010",
    "state": "DC",
    "county": "",
    "orgId": "CBP_WQX",
    "orgName": "Chesapeake Bay Program (CBP)",
    "resultCount": 0,
    "lastSampleDate": null
  },
  {
    "id": "CBP_WQX-ANA15",
    "name": "ANA15",
    "type": "River/Stream",
    "lat": 38.87595,
    "lon": -76.98025,
    "huc8": "02070010",
    "state": "DC",
    "county": "",
    "orgId": "CBP_WQX",
    "orgName": "Chesapeake Bay Program (CBP)",
    "resultCount": 0,
    "lastSampleDate": null
  },
  {
    "id": "CBP_WQX-ANA16",
    "name": "ANA16",
    "type": "River/Stream",
    "lat": 38.87428,
    "lon": -76.9847,
    "huc8": "02070010",
    "state": "DC",
    "county": "",
    "orgId": "CBP_WQX",
    "orgName": "Chesapeake Bay Program (CBP)",
    "resultCount": 0,
    "lastSampleDate": null
  },
  {
    "id": "CBP_WQX-ANA17",
    "name": "ANA17",
    "type": "River/Stream",
    "lat": 38.87511,
    "lon": -76.98831,
    "huc8": "02070010",
    "state": "DC",
    "county": "",
    "orgId": "CBP_WQX",
    "orgName": "Chesapeake Bay Program (CBP)",
    "resultCount": 0,
    "lastSampleDate": null
  },
  {
    "id": "CBP_WQX-ANA18",
    "name": "ANA18",
    "type": "River/Stream",
    "lat": 38.86972,
    "lon": -76.99277,
    "huc8": "02070010",
    "state": "DC",
    "county": "",
    "orgId": "CBP_WQX",
    "orgName": "Chesapeake Bay Program (CBP)",
    "resultCount": 0,
    "lastSampleDate": null
  },
  {
    "id": "CBP_WQX-ANA19",
    "name": "ANA19",
    "type": "River/Stream",
    "lat": 38.87028,
    "lon": -76.99694,
    "huc8": "02070010",
    "state": "DC",
    "county": "",
    "orgId": "CBP_WQX",
    "orgName": "Chesapeake Bay Program (CBP)",
    "resultCount": 0,
    "lastSampleDate": null
  },
  {
    "id": "CBP_WQX-ANA20",
    "name": "ANA20",
    "type": "River/Stream",
    "lat": 38.8715,
    "lon": -77.00108,
    "huc8": "02070010",
    "state": "DC",
    "county": "",
    "orgId": "CBP_WQX",
    "orgName": "Chesapeake Bay Program (CBP)",
    "resultCount": 0,
    "lastSampleDate": null
  },
  {
    "id": "CBP_WQX-ANA21",
    "name": "ANA21",
    "type": "River/Stream",
    "lat": 38.85289,
    "lon": -77.0047,
    "huc8": "02070010",
    "state": "DC",
    "county": "",
    "orgId": "CBP_WQX",
    "orgName": "Chesapeake Bay Program (CBP)",
    "resultCount": 0,
    "lastSampleDate": null
  },
  {
    "id": "CBP_WQX-ANA22",
    "name": "ANA22",
    "type": "River/Stream",
    "lat": 38.8665,
    "lon": -77.00692,
    "huc8": "02070010",
    "state": "DC",
    "county": "",
    "orgId": "CBP_WQX",
    "orgName": "Chesapeake Bay Program (CBP)",
    "resultCount": 0,
    "lastSampleDate": null
  },
  {
    "id": "CBP_WQX-ANA23",
    "name": "ANA23",
    "type": "River/Stream",
    "lat": 38.86317,
    "lon": -77.00914,
    "huc8": "02070010",
    "state": "DC",
    "county": "",
    "orgId": "CBP_WQX",
    "orgName": "Chesapeake Bay Program (CBP)",
    "resultCount": 0,
    "lastSampleDate": null
  },
  {
    "id": "CBP_WQX-ANA24",
    "name": "ANA24",
    "type": "River/Stream",
    "lat": 38.86122,
    "lon": -77.01276,
    "huc8": "02070010",
    "state": "DC",
    "county": "",
    "orgId": "CBP_WQX",
    "orgName": "Chesapeake Bay Program (CBP)",
    "resultCount": 0,
    "lastSampleDate": null
  },
  {
    "id": "CBP_WQX-ANA25",
    "name": "ANA25",
    "type": "River/Stream",
    "lat": 38.859,
    "lon": -77.01692,
    "huc8": "02070010",
    "state": "DC",
    "county": "",
    "orgId": "CBP_WQX",
    "orgName": "Chesapeake Bay Program (CBP)",
    "resultCount": 0,
    "lastSampleDate": null
  },
  {
    "id": "CBP_WQX-ANA26",
    "name": "ANA26",
    "type": "River/Stream",
    "lat": 38.85622,
    "lon": -77.01914,
    "huc8": "02070010",
    "state": "DC",
    "county": "",
    "orgId": "CBP_WQX",
    "orgName": "Chesapeake Bay Program (CBP)",
    "resultCount": 0,
    "lastSampleDate": null
  },
  {
    "id": "CBP_WQX-ANA27",
    "name": "ANA27",
    "type": "River/Stream",
    "lat": 38.85289,
    "lon": -77.02053,
    "huc8": "02070010",
    "state": "DC",
    "county": "",
    "orgId": "CBP_WQX",
    "orgName": "Chesapeake Bay Program (CBP)",
    "resultCount": 0,
    "lastSampleDate": null
  },
  {
    "id": "CBP_WQX-ANA29",
    "name": "ANA29",
    "type": "River/Stream",
    "lat": 38.85067,
    "lon": -77.0222,
    "huc8": "02070010",
    "state": "DC",
    "county": "",
    "orgId": "CBP_WQX",
    "orgName": "Chesapeake Bay Program (CBP)",
    "resultCount": 0,
    "lastSampleDate": null
  },
  {
    "id": "CBP_WQX-KNG01",
    "name": "KNG01",
    "type": "River/Stream",
    "lat": 38.89039,
    "lon": -76.94414,
    "huc8": "02070010",
    "state": "DC",
    "county": "",
    "orgId": "CBP_WQX",
    "orgName": "Chesapeake Bay Program (CBP)",
    "resultCount": 0,
    "lastSampleDate": null
  },
  {
    "id": "CBP_WQX-KNG02",
    "name": "KNG02",
    "type": "River/Stream",
    "lat": 38.89761,
    "lon": -76.96581,
    "huc8": "02070010",
    "state": "DC",
    "county": "",
    "orgId": "CBP_WQX",
    "orgName": "Chesapeake Bay Program (CBP)",
    "resultCount": 0,
    "lastSampleDate": null
  },
  {
    "id": "CBP_WQX-PMS01",
    "name": "PMS01",
    "type": "River/Stream",
    "lat": 38.91789,
    "lon": -77.1047,
    "huc8": "02070010",
    "state": "DC",
    "county": "",
    "orgId": "CBP_WQX",
    "orgName": "Chesapeake Bay Program (CBP)",
    "resultCount": 0,
    "lastSampleDate": null
  },
  {
    "id": "CBP_WQX-PMS02",
    "name": "PMS02",
    "type": "River/Stream",
    "lat": 38.91456,
    "lon": -77.10248,
    "huc8": "02070010",
    "state": "DC",
    "county": "",
    "orgId": "CBP_WQX",
    "orgName": "Chesapeake Bay Program (CBP)",
    "resultCount": 0,
    "lastSampleDate": null
  },
  {
    "id": "CBP_WQX-PMS03",
    "name": "PMS03",
    "type": "River/Stream",
    "lat": 38.91122,
    "lon": -77.09998,
    "huc8": "02070010",
    "state": "DC",
    "county": "",
    "orgId": "CBP_WQX",
    "orgName": "Chesapeake Bay Program (CBP)",
    "resultCount": 0,
    "lastSampleDate": null
  },
  {
    "id": "CBP_WQX-PMS05",
    "name": "PMS05",
    "type": "River/Stream",
    "lat": 38.9065,
    "lon": -77.0922,
    "huc8": "02070010",
    "state": "DC",
    "county": "",
    "orgId": "CBP_WQX",
    "orgName": "Chesapeake Bay Program (CBP)",
    "resultCount": 0,
    "lastSampleDate": null
  },
  {
    "id": "CBP_WQX-PMS07",
    "name": "PMS07",
    "type": "River/Stream",
    "lat": 38.90372,
    "lon": -77.08387,
    "huc8": "02070010",
    "state": "DC",
    "county": "",
    "orgId": "CBP_WQX",
    "orgName": "Chesapeake Bay Program (CBP)",
    "resultCount": 0,
    "lastSampleDate": null
  },
  {
    "id": "CBP_WQX-PMS08",
    "name": "PMS08",
    "type": "River/Stream",
    "lat": 38.90345,
    "lon": -77.07942,
    "huc8": "02070010",
    "state": "DC",
    "county": "",
    "orgId": "CBP_WQX",
    "orgName": "Chesapeake Bay Program (CBP)",
    "resultCount": 0,
    "lastSampleDate": null
  },
  {
    "id": "CBP_WQX-PMS09",
    "name": "PMS09",
    "type": "River/Stream",
    "lat": 38.90289,
    "lon": -77.07497,
    "huc8": "02070010",
    "state": "DC",
    "county": "",
    "orgId": "CBP_WQX",
    "orgName": "Chesapeake Bay Program (CBP)",
    "resultCount": 0,
    "lastSampleDate": null
  },
  {
    "id": "CBP_WQX-PMS10",
    "name": "PMS10",
    "type": "River/Stream",
    "lat": 38.90233,
    "lon": -77.06942,
    "huc8": "02070010",
    "state": "DC",
    "county": "",
    "orgId": "CBP_WQX",
    "orgName": "Chesapeake Bay Program (CBP)",
    "resultCount": 0,
    "lastSampleDate": null
  },
  {
    "id": "CBP_WQX-PMS11",
    "name": "PMS11",
    "type": "River/Stream",
    "lat": 38.9015,
    "lon": -77.06554,
    "huc8": "02070010",
    "state": "DC",
    "county": "",
    "orgId": "CBP_WQX",
    "orgName": "Chesapeake Bay Program (CBP)",
    "resultCount": 0,
    "lastSampleDate": null
  },
  {
    "id": "CBP_WQX-PMS12",
    "name": "PMS12",
    "type": "River/Stream",
    "lat": 38.90039,
    "lon": -77.06136,
    "huc8": "02070010",
    "state": "DC",
    "county": "",
    "orgId": "CBP_WQX",
    "orgName": "Chesapeake Bay Program (CBP)",
    "resultCount": 0,
    "lastSampleDate": null
  },
  {
    "id": "CBP_WQX-PMS13",
    "name": "PMS13",
    "type": "River/Stream",
    "lat": 38.89845,
    "lon": -77.05776,
    "huc8": "02070010",
    "state": "DC",
    "county": "",
    "orgId": "CBP_WQX",
    "orgName": "Chesapeake Bay Program (CBP)",
    "resultCount": 0,
    "lastSampleDate": null
  },
  {
    "id": "CBP_WQX-PMS16",
    "name": "PMS16",
    "type": "River/Stream",
    "lat": 38.88817,
    "lon": -77.05415,
    "huc8": "02070010",
    "state": "DC",
    "county": "",
    "orgId": "CBP_WQX",
    "orgName": "Chesapeake Bay Program (CBP)",
    "resultCount": 0,
    "lastSampleDate": null
  },
  {
    "id": "CBP_WQX-PMS18",
    "name": "PMS18",
    "type": "River/Stream",
    "lat": 38.88122,
    "lon": -77.05192,
    "huc8": "02070010",
    "state": "DC",
    "county": "",
    "orgId": "CBP_WQX",
    "orgName": "Chesapeake Bay Program (CBP)",
    "resultCount": 0,
    "lastSampleDate": null
  },
  {
    "id": "CBP_WQX-PMS21",
    "name": "PMS21",
    "type": "River/Stream",
    "lat": 38.87428,
    "lon": -77.0422,
    "huc8": "02070010",
    "state": "DC",
    "county": "",
    "orgId": "CBP_WQX",
    "orgName": "Chesapeake Bay Program (CBP)",
    "resultCount": 0,
    "lastSampleDate": null
  },
  {
    "id": "CBP_WQX-PMS23",
    "name": "PMS23",
    "type": "River/Stream",
    "lat": 38.86984,
    "lon": -77.03414,
    "huc8": "02070010",
    "state": "DC",
    "county": "",
    "orgId": "CBP_WQX",
    "orgName": "Chesapeake Bay Program (CBP)",
    "resultCount": 0,
    "lastSampleDate": null
  },
  {
    "id": "CBP_WQX-PMS25",
    "name": "PMS25",
    "type": "River/Stream",
    "lat": 38.86317,
    "lon": -77.02914,
    "huc8": "02070010",
    "state": "DC",
    "county": "",
    "orgId": "CBP_WQX",
    "orgName": "Chesapeake Bay Program (CBP)",
    "resultCount": 0,
    "lastSampleDate": null
  },
  {
    "id": "CBP_WQX-PMS27",
    "name": "PMS27",
    "type": "River/Stream",
    "lat": 38.85706,
    "lon": -77.02608,
    "huc8": "02070010",
    "state": "DC",
    "county": "",
    "orgId": "CBP_WQX",
    "orgName": "Chesapeake Bay Program (CBP)",
    "resultCount": 0,
    "lastSampleDate": null
  },
  {
    "id": "CBP_WQX-PMS29",
    "name": "PMS29",
    "type": "River/Stream",
    "lat": 38.85039,
    "lon": -77.0222,
    "huc8": "02070010",
    "state": "DC",
    "county": "",
    "orgId": "CBP_WQX",
    "orgName": "Chesapeake Bay Program (CBP)",
    "resultCount": 0,
    "lastSampleDate": null
  },
  {
    "id": "CBP_WQX-PMS31",
    "name": "PMS31",
    "type": "River/Stream",
    "lat": 38.84289,
    "lon": -77.02359,
    "huc8": "02070010",
    "state": "DC",
    "county": "",
    "orgId": "CBP_WQX",
    "orgName": "Chesapeake Bay Program (CBP)",
    "resultCount": 0,
    "lastSampleDate": null
  },
  {
    "id": "CBP_WQX-PMS33",
    "name": "PMS33",
    "type": "River/Stream",
    "lat": 38.83567,
    "lon": -77.02637,
    "huc8": "02070010",
    "state": "DC",
    "county": "",
    "orgId": "CBP_WQX",
    "orgName": "Chesapeake Bay Program (CBP)",
    "resultCount": 0,
    "lastSampleDate": null
  },
  {
    "id": "CBP_WQX-PMS35",
    "name": "PMS35",
    "type": "River/Stream",
    "lat": 38.82872,
    "lon": -77.0297,
    "huc8": "02070010",
    "state": "DC",
    "county": "",
    "orgId": "CBP_WQX",
    "orgName": "Chesapeake Bay Program (CBP)",
    "resultCount": 0,
    "lastSampleDate": null
  },
  {
    "id": "CBP_WQX-PMS37",
    "name": "PMS37",
    "type": "River/Stream",
    "lat": 38.82178,
    "lon": -77.03109,
    "huc8": "02070010",
    "state": "DC",
    "county": "",
    "orgId": "CBP_WQX",
    "orgName": "Chesapeake Bay Program (CBP)",
    "resultCount": 0,
    "lastSampleDate": null
  },
  {
    "id": "CBP_WQX-PMS39",
    "name": "PMS39",
    "type": "River/Stream",
    "lat": 38.814,
    "lon": -77.03387,
    "huc8": "02070010",
    "state": "DC",
    "county": "",
    "orgId": "CBP_WQX",
    "orgName": "Chesapeake Bay Program (CBP)",
    "resultCount": 0,
    "lastSampleDate": null
  },
  {
    "id": "CBP_WQX-PMS41",
    "name": "PMS41",
    "type": "River/Stream",
    "lat": 38.8065,
    "lon": -77.03581,
    "huc8": "02070010",
    "state": "DC",
    "county": "",
    "orgId": "CBP_WQX",
    "orgName": "Chesapeake Bay Program (CBP)",
    "resultCount": 0,
    "lastSampleDate": null
  },
  {
    "id": "CBP_WQX-PMS44",
    "name": "PMS44",
    "type": "River/Stream",
    "lat": 38.79483,
    "lon": -77.03692,
    "huc8": "02070010",
    "state": "DC",
    "county": "",
    "orgId": "CBP_WQX",
    "orgName": "Chesapeake Bay Program (CBP)",
    "resultCount": 0,
    "lastSampleDate": null
  },
  {
    "id": "CBP_WQX-PTB01",
    "name": "PTB01",
    "type": "River/Stream",
    "lat": 38.88706,
    "lon": -77.03942,
    "huc8": "02070010",
    "state": "DC",
    "county": "",
    "orgId": "CBP_WQX",
    "orgName": "Chesapeake Bay Program (CBP)",
    "resultCount": 0,
    "lastSampleDate": null
  },
  {
    "id": "CBP_WQX-PWC04",
    "name": "PWC04",
    "type": "River/Stream",
    "lat": 38.87372,
    "lon": -77.0222,
    "huc8": "02070010",
    "state": "DC",
    "county": "",
    "orgId": "CBP_WQX",
    "orgName": "Chesapeake Bay Program (CBP)",
    "resultCount": 0,
    "lastSampleDate": null
  },
  {
    "id": "CBP_WQX-RCR04",
    "name": "RCR04",
    "type": "River/Stream",
    "lat": 38.96039,
    "lon": -77.04387,
    "huc8": "02070010",
    "state": "DC",
    "county": "",
    "orgId": "CBP_WQX",
    "orgName": "Chesapeake Bay Program (CBP)",
    "resultCount": 0,
    "lastSampleDate": null
  },
  {
    "id": "CBP_WQX-RCR07",
    "name": "RCR07",
    "type": "River/Stream",
    "lat": 38.934,
    "lon": -77.04887,
    "huc8": "02070010",
    "state": "DC",
    "county": "",
    "orgId": "CBP_WQX",
    "orgName": "Chesapeake Bay Program (CBP)",
    "resultCount": 0,
    "lastSampleDate": null
  },
  {
    "id": "CBP_WQX-RCR09",
    "name": "RCR09",
    "type": "River/Stream",
    "lat": 38.92844,
    "lon": -77.04942,
    "huc8": "02070010",
    "state": "DC",
    "county": "",
    "orgId": "CBP_WQX",
    "orgName": "Chesapeake Bay Program (CBP)",
    "resultCount": 0,
    "lastSampleDate": null
  },
  {
    "id": "CBP_WQX-TBR01",
    "name": "TBR01",
    "type": "River/Stream",
    "lat": 38.94528,
    "lon": -77.05111,
    "huc8": "02070010",
    "state": "DC",
    "county": "",
    "orgId": "CBP_WQX",
    "orgName": "Chesapeake Bay Program (CBP)",
    "resultCount": 0,
    "lastSampleDate": null
  },
  {
    "id": "CBP_WQX-TCO06",
    "name": "TCO06",
    "type": "River/Stream",
    "lat": 38.92761,
    "lon": -77.10136,
    "huc8": "02070010",
    "state": "DC",
    "county": "",
    "orgId": "CBP_WQX",
    "orgName": "Chesapeake Bay Program (CBP)",
    "resultCount": 0,
    "lastSampleDate": null
  },
  {
    "id": "CBP_WQX-TDO01",
    "name": "TDO01",
    "type": "River/Stream",
    "lat": 38.91556,
    "lon": -77.05972,
    "huc8": "02070010",
    "state": "DC",
    "county": "",
    "orgId": "CBP_WQX",
    "orgName": "Chesapeake Bay Program (CBP)",
    "resultCount": 0,
    "lastSampleDate": null
  },
  {
    "id": "CBP_WQX-TDU01",
    "name": "TDU01",
    "type": "River/Stream",
    "lat": 38.88345,
    "lon": -76.97636,
    "huc8": "02070010",
    "state": "DC",
    "county": "",
    "orgId": "CBP_WQX",
    "orgName": "Chesapeake Bay Program (CBP)",
    "resultCount": 0,
    "lastSampleDate": null
  },
  {
    "id": "CBP_WQX-TFB01",
    "name": "TFB01",
    "type": "River/Stream",
    "lat": 38.91928,
    "lon": -77.08303,
    "huc8": "02070010",
    "state": "DC",
    "county": "",
    "orgId": "CBP_WQX",
    "orgName": "Chesapeake Bay Program (CBP)",
    "resultCount": 0,
    "lastSampleDate": null
  },
  {
    "id": "CBP_WQX-TFB02",
    "name": "TFB02",
    "type": "River/Stream",
    "lat": 38.93417,
    "lon": -77.07889,
    "huc8": "02070010",
    "state": "DC",
    "county": "",
    "orgId": "CBP_WQX",
    "orgName": "Chesapeake Bay Program (CBP)",
    "resultCount": 0,
    "lastSampleDate": null
  },
  {
    "id": "CBP_WQX-TFC01",
    "name": "TFC01",
    "type": "River/Stream",
    "lat": 38.88678,
    "lon": -76.9372,
    "huc8": "02070010",
    "state": "DC",
    "county": "",
    "orgId": "CBP_WQX",
    "orgName": "Chesapeake Bay Program (CBP)",
    "resultCount": 0,
    "lastSampleDate": null
  },
  {
    "id": "CBP_WQX-TFD01",
    "name": "TFD01",
    "type": "River/Stream",
    "lat": 38.87011,
    "lon": -76.95803,
    "huc8": "02070010",
    "state": "DC",
    "county": "",
    "orgId": "CBP_WQX",
    "orgName": "Chesapeake Bay Program (CBP)",
    "resultCount": 0,
    "lastSampleDate": null
  },
  {
    "id": "CBP_WQX-TFS01",
    "name": "TFS01",
    "type": "River/Stream",
    "lat": 38.86678,
    "lon": -76.9747,
    "huc8": "02070010",
    "state": "DC",
    "county": "",
    "orgId": "CBP_WQX",
    "orgName": "Chesapeake Bay Program (CBP)",
    "resultCount": 0,
    "lastSampleDate": null
  },
  {
    "id": "CBP_WQX-THR01",
    "name": "THR01",
    "type": "River/Stream",
    "lat": 38.90844,
    "lon": -76.9622,
    "huc8": "02070010",
    "state": "DC",
    "county": "",
    "orgId": "CBP_WQX",
    "orgName": "Chesapeake Bay Program (CBP)",
    "resultCount": 0,
    "lastSampleDate": null
  },
  {
    "id": "CBP_WQX-THR02",
    "name": "THR02",
    "type": "River/Stream",
    "lat": 38.92017,
    "lon": -76.97498,
    "huc8": "02070010",
    "state": "DC",
    "county": "",
    "orgId": "CBP_WQX",
    "orgName": "Chesapeake Bay Program (CBP)",
    "resultCount": 0,
    "lastSampleDate": null
  },
  {
    "id": "CBP_WQX-TKV01",
    "name": "TKV01",
    "type": "River/Stream",
    "lat": 38.93306,
    "lon": -77.05111,
    "huc8": "02070010",
    "state": "DC",
    "county": "",
    "orgId": "CBP_WQX",
    "orgName": "Chesapeake Bay Program (CBP)",
    "resultCount": 0,
    "lastSampleDate": null
  },
  {
    "id": "CBP_WQX-TLU01",
    "name": "TLU01",
    "type": "River/Stream",
    "lat": 38.9621,
    "lon": -77.04135,
    "huc8": "02070010",
    "state": "DC",
    "county": "",
    "orgId": "CBP_WQX",
    "orgName": "Chesapeake Bay Program (CBP)",
    "resultCount": 0,
    "lastSampleDate": null
  },
  {
    "id": "CBP_WQX-TMH01",
    "name": "TMH01",
    "type": "River/Stream",
    "lat": 38.93781,
    "lon": -77.05304,
    "huc8": "02070010",
    "state": "DC",
    "county": "",
    "orgId": "CBP_WQX",
    "orgName": "Chesapeake Bay Program (CBP)",
    "resultCount": 0,
    "lastSampleDate": null
  },
  {
    "id": "CBP_WQX-TMI01",
    "name": "TMI01",
    "type": "River/Stream",
    "lat": 38.94577,
    "lon": -77.10293,
    "huc8": "02070008",
    "state": "DC",
    "county": "",
    "orgId": "CBP_WQX",
    "orgName": "Chesapeake Bay Program (CBP)",
    "resultCount": 0,
    "lastSampleDate": null
  },
  {
    "id": "CBP_WQX-TNA01",
    "name": "TNA01",
    "type": "River/Stream",
    "lat": 38.91011,
    "lon": -76.94136,
    "huc8": "02070010",
    "state": "DC",
    "county": "",
    "orgId": "CBP_WQX",
    "orgName": "Chesapeake Bay Program (CBP)",
    "resultCount": 0,
    "lastSampleDate": null
  },
  {
    "id": "CBP_WQX-TNS01",
    "name": "TNS01",
    "type": "River/Stream",
    "lat": 38.91917,
    "lon": -77.05611,
    "huc8": "02070010",
    "state": "DC",
    "county": "",
    "orgId": "CBP_WQX",
    "orgName": "Chesapeake Bay Program (CBP)",
    "resultCount": 0,
    "lastSampleDate": null
  },
  {
    "id": "CBP_WQX-TPB01",
    "name": "TPB01",
    "type": "River/Stream",
    "lat": 38.88678,
    "lon": -76.97636,
    "huc8": "02070010",
    "state": "DC",
    "county": "",
    "orgId": "CBP_WQX",
    "orgName": "Chesapeake Bay Program (CBP)",
    "resultCount": 0,
    "lastSampleDate": null
  },
  {
    "id": "CBP_WQX-TPI01",
    "name": "TPI01",
    "type": "River/Stream",
    "lat": 38.97111,
    "lon": -77.04417,
    "huc8": "02070010",
    "state": "DC",
    "county": "",
    "orgId": "CBP_WQX",
    "orgName": "Chesapeake Bay Program (CBP)",
    "resultCount": 0,
    "lastSampleDate": null
  },
  {
    "id": "CBP_WQX-TPO01",
    "name": "TPO01",
    "type": "River/Stream",
    "lat": 38.98841,
    "lon": -77.04135,
    "huc8": "02070010",
    "state": "DC",
    "county": "",
    "orgId": "CBP_WQX",
    "orgName": "Chesapeake Bay Program (CBP)",
    "resultCount": 0,
    "lastSampleDate": null
  },
  {
    "id": "CBP_WQX-TPY01",
    "name": "TPY01",
    "type": "River/Stream",
    "lat": 38.93528,
    "lon": -77.04778,
    "huc8": "02070010",
    "state": "DC",
    "county": "",
    "orgId": "CBP_WQX",
    "orgName": "Chesapeake Bay Program (CBP)",
    "resultCount": 0,
    "lastSampleDate": null
  },
  {
    "id": "CBP_WQX-TSO01",
    "name": "TSO01",
    "type": "River/Stream",
    "lat": 38.9449,
    "lon": -77.05174,
    "huc8": "02070010",
    "state": "DC",
    "county": "",
    "orgId": "CBP_WQX",
    "orgName": "Chesapeake Bay Program (CBP)",
    "resultCount": 0,
    "lastSampleDate": null
  },
  {
    "id": "CBP_WQX-TTX27",
    "name": "TTX27",
    "type": "River/Stream",
    "lat": 38.86845,
    "lon": -76.96914,
    "huc8": "02070010",
    "state": "DC",
    "county": "",
    "orgId": "CBP_WQX",
    "orgName": "Chesapeake Bay Program (CBP)",
    "resultCount": 0,
    "lastSampleDate": null
  },
  {
    "id": "CBP_WQX-TUT01",
    "name": "TUT01",
    "type": "River/Stream",
    "lat": 38.91845,
    "lon": -76.95248,
    "huc8": "02070010",
    "state": "DC",
    "county": "",
    "orgId": "CBP_WQX",
    "orgName": "Chesapeake Bay Program (CBP)",
    "resultCount": 0,
    "lastSampleDate": null
  },
  {
    "id": "CBP_WQX-TWB01",
    "name": "TWB01",
    "type": "River/Stream",
    "lat": 38.90345,
    "lon": -76.94553,
    "huc8": "02070010",
    "state": "DC",
    "county": "",
    "orgId": "CBP_WQX",
    "orgName": "Chesapeake Bay Program (CBP)",
    "resultCount": 0,
    "lastSampleDate": null
  },
  {
    "id": "CBP_WQX-TWB02",
    "name": "TWB02",
    "type": "River/Stream",
    "lat": 38.89789,
    "lon": -76.94859,
    "huc8": "02070010",
    "state": "DC",
    "county": "",
    "orgId": "CBP_WQX",
    "orgName": "Chesapeake Bay Program (CBP)",
    "resultCount": 0,
    "lastSampleDate": null
  },
  {
    "id": "CBP_WQX-TWB03",
    "name": "TWB03",
    "type": "River/Stream",
    "lat": 38.89567,
    "lon": -76.93858,
    "huc8": "02070010",
    "state": "DC",
    "county": "",
    "orgId": "CBP_WQX",
    "orgName": "Chesapeake Bay Program (CBP)",
    "resultCount": 0,
    "lastSampleDate": null
  },
  {
    "id": "CBP_WQX-TWB04",
    "name": "TWB04",
    "type": "River/Stream",
    "lat": 38.89372,
    "lon": -76.92886,
    "huc8": "02070010",
    "state": "DC",
    "county": "",
    "orgId": "CBP_WQX",
    "orgName": "Chesapeake Bay Program (CBP)",
    "resultCount": 0,
    "lastSampleDate": null
  },
  {
    "id": "CBP_WQX-TWB05",
    "name": "TWB05",
    "type": "River/Stream",
    "lat": 38.894,
    "lon": -76.9147,
    "huc8": "02070010",
    "state": "DC",
    "county": "",
    "orgId": "CBP_WQX",
    "orgName": "Chesapeake Bay Program (CBP)",
    "resultCount": 0,
    "lastSampleDate": null
  },
  {
    "id": "CBP_WQX-TWB06",
    "name": "TWB06",
    "type": "River/Stream",
    "lat": 38.89372,
    "lon": -76.93192,
    "huc8": "02070010",
    "state": "DC",
    "county": "",
    "orgId": "CBP_WQX",
    "orgName": "Chesapeake Bay Program (CBP)",
    "resultCount": 0,
    "lastSampleDate": null
  },
  {
    "id": "CBP_WQX-XFB8408",
    "name": "XFB8408",
    "type": "River/Stream",
    "lat": 38.8079,
    "lon": -77.0321,
    "huc8": "02070010",
    "state": "DC",
    "county": "",
    "orgId": "CBP_WQX",
    "orgName": "Chesapeake Bay Program (CBP)",
    "resultCount": 0,
    "lastSampleDate": null
  },
  {
    "id": "DOEE-ANA01",
    "name": "Anacostia River",
    "type": "Estuary",
    "lat": 38.91852222,
    "lon": -76.94206111,
    "huc8": "02070010",
    "state": "DC",
    "county": "",
    "orgId": "DOEE",
    "orgName": "District Of Columbia Department Of Energy And Environment-water Quality Division",
    "resultCount": 672,
    "lastSampleDate": "2025-08-25"
  },
  {
    "id": "DOEE-ANA05",
    "name": "Anacostia River",
    "type": "Estuary",
    "lat": 38.90948611,
    "lon": -76.95575833,
    "huc8": "02070010",
    "state": "DC",
    "county": "",
    "orgId": "DOEE",
    "orgName": "District Of Columbia Department Of Energy And Environment-water Quality Division",
    "resultCount": 267,
    "lastSampleDate": "2025-08-12"
  },
  {
    "id": "DOEE-ANA08",
    "name": "Anacostia River",
    "type": "Estuary",
    "lat": 38.89774444,
    "lon": -76.96216667,
    "huc8": "02070010",
    "state": "DC",
    "county": "",
    "orgId": "DOEE",
    "orgName": "District Of Columbia Department Of Energy And Environment-water Quality Division",
    "resultCount": 265,
    "lastSampleDate": "2025-08-12"
  },
  {
    "id": "DOEE-ANA11",
    "name": "Anacostia River",
    "type": "Estuary",
    "lat": 38.8858,
    "lon": -76.96559444,
    "huc8": "02070010",
    "state": "DC",
    "county": "",
    "orgId": "DOEE",
    "orgName": "District Of Columbia Department Of Energy And Environment-water Quality Division",
    "resultCount": 236,
    "lastSampleDate": "2025-08-12"
  },
  {
    "id": "DOEE-ANA14",
    "name": "Anacostia River",
    "type": "Estuary",
    "lat": 38.87720278,
    "lon": -76.97490278,
    "huc8": "02070010",
    "state": "DC",
    "county": "",
    "orgId": "DOEE",
    "orgName": "District Of Columbia Department Of Energy And Environment-water Quality Division",
    "resultCount": 834,
    "lastSampleDate": "2025-08-25"
  },
  {
    "id": "DOEE-ANA19",
    "name": "Anacostia River",
    "type": "Estuary",
    "lat": 38.870554,
    "lon": -76.99708,
    "huc8": "02070010",
    "state": "DC",
    "county": "",
    "orgId": "DOEE",
    "orgName": "District Of Columbia Department Of Energy And Environment-water Quality Division",
    "resultCount": 277,
    "lastSampleDate": "2025-08-12"
  },
  {
    "id": "DOEE-ANA21",
    "name": "Anacostia River",
    "type": "Estuary",
    "lat": 38.86988056,
    "lon": -77.00484444,
    "huc8": "02070010",
    "state": "DC",
    "county": "",
    "orgId": "DOEE",
    "orgName": "District Of Columbia Department Of Energy And Environment-water Quality Division",
    "resultCount": 760,
    "lastSampleDate": "2025-08-25"
  },
  {
    "id": "DOEE-ANA24",
    "name": "Anacostia River",
    "type": "Estuary",
    "lat": 38.86088333,
    "lon": -77.01406944,
    "huc8": "02070010",
    "state": "DC",
    "county": "",
    "orgId": "DOEE",
    "orgName": "District Of Columbia Department Of Energy And Environment-water Quality Division",
    "resultCount": 244,
    "lastSampleDate": "2025-08-12"
  },
  {
    "id": "DOEE-ANA29",
    "name": "Anacostia River",
    "type": "Estuary",
    "lat": 38.85305,
    "lon": -77.02276111,
    "huc8": "02070010",
    "state": "DC",
    "county": "",
    "orgId": "DOEE",
    "orgName": "District Of Columbia Department Of Energy And Environment-water Quality Division",
    "resultCount": 276,
    "lastSampleDate": "2025-08-12"
  },
  {
    "id": "DOEE-BRB1",
    "name": "Broad Branch",
    "type": "River/Stream",
    "lat": 38.94502,
    "lon": -77.050437,
    "huc8": "02070010",
    "state": "DC",
    "county": "",
    "orgId": "DOEE",
    "orgName": "District Of Columbia Department Of Energy And Environment-water Quality Division",
    "resultCount": 28,
    "lastSampleDate": "2022-02-09"
  },
  {
    "id": "DOEE-KNG01",
    "name": "Kingman Lake 1",
    "type": "Lake",
    "lat": 38.88951667,
    "lon": -76.96748333,
    "huc8": "02070010",
    "state": "DC",
    "county": "",
    "orgId": "DOEE",
    "orgName": "District Of Columbia Department Of Energy And Environment-water Quality Division",
    "resultCount": 363,
    "lastSampleDate": "2025-08-05"
  },
  {
    "id": "DOEE-KNG02",
    "name": "Kingman Lake 2",
    "type": "Lake",
    "lat": 38.89768333,
    "lon": -76.96545,
    "huc8": "02070010",
    "state": "DC",
    "county": "",
    "orgId": "DOEE",
    "orgName": "District Of Columbia Department Of Energy And Environment-water Quality Division",
    "resultCount": 305,
    "lastSampleDate": "2025-08-05"
  },