[
  { "id": "camp-arifjan", "name": "Camp Arifjan", "lat": 28.93, "lng": 48.10, "region": "middle-east", "branch": "Army", "burnPitHistory": true },
  { "id": "al-udeid", "name": "Al Udeid Air Base", "lat": 25.12, "lng": 51.31, "region": "middle-east", "branch": "Air Force", "burnPitHistory": true },
  { "id": "al-dhafra", "name": "Al Dhafra Air Base", "lat": 24.25, "lng": 54.55, "region": "middle-east", "branch": "Air Force", "burnPitHistory": true },
  { "id": "camp-buehring", "name": "Camp Buehring", "lat": 29.25, "lng": 47.68, "region": "middle-east", "branch": "Army", "burnPitHistory": true },
  { "id": "ali-al-salem", "name": "Ali Al Salem Air Base", "lat": 29.35, "lng": 47.52, "region": "middle-east", "branch": "Air Force", "burnPitHistory": true },
  { "id": "camp-lemonnier", "name": "Camp Lemonnier", "lat": 11.55, "lng": 43.15, "region": "africa", "branch": "Navy", "burnPitHistory": true },
  { "id": "prince-sultan", "name": "Prince Sultan Air Base", "lat": 24.06, "lng": 47.58, "region": "middle-east", "branch": "Air Force", "burnPitHistory": true },
  { "id": "incirlik", "name": "Incirlik Air Base", "lat": 37.00, "lng": 35.43, "region": "middle-east", "branch": "Air Force", "burnPitHistory": false },
  { "id": "kadena", "name": "Kadena Air Base", "lat": 26.35, "lng": 127.77, "region": "indo-pacific", "branch": "Air Force", "burnPitHistory": false },
  { "id": "yokota", "name": "Yokota Air Base", "lat": 35.75, "lng": 139.35, "region": "indo-pacific", "branch": "Air Force", "burnPitHistory": false },
  { "id": "camp-humphreys", "name": "Camp Humphreys", "lat": 36.96, "lng": 127.03, "region": "indo-pacific", "branch": "Army", "burnPitHistory": false },
  { "id": "andersen", "name": "Andersen Air Force Base", "lat": 13.58, "lng": 144.93, "region": "indo-pacific", "branch": "Air Force", "burnPitHistory": false },
  { "id": "diego-garcia", "name": "Naval Support Facility Diego Garcia", "lat": -7.32, "lng": 72.42, "region": "indo-pacific", "branch": "Navy", "burnPitHistory": true },
  { "id": "ramstein", "name": "Ramstein Air Base", "lat": 49.44, "lng": 7.60, "region": "europe", "branch": "Air Force", "burnPitHistory": false },
  { "id": "aviano", "name": "Aviano Air Base", "lat": 46.03, "lng": 12.60, "region": "europe", "branch": "Air Force", "burnPitHistory": false },
  { "id": "grafenwoehr", "name": "Grafenwoehr Training Area", "lat": 49.69, "lng": 11.94, "region": "europe", "branch": "Army", "burnPitHistory": false },
  { "id": "rota", "name": "Naval Station Rota", "lat": 36.64, "lng": -6.35, "region": "europe", "branch": "Navy", "burnPitHistory": false },
  { "id": "sigonella", "name": "NAS Sigonella", "lat": 37.40, "lng": 14.92, "region": "europe", "branch": "Navy", "burnPitHistory": false },
  { "id": "camp-bondsteel", "name": "Camp Bondsteel", "lat": 42.36, "lng": 21.25, "region": "europe", "branch": "Army", "burnPitHistory": true },
  { "id": "fort-liberty", "name": "Fort Liberty", "lat": 35.14, "lng": -79.00, "region": "conus", "branch": "Army", "burnPitHistory": false },
  { "id": "fort-hood", "name": "Fort Cavazos", "lat": 31.13, "lng": -97.78, "region": "conus", "branch": "Army", "burnPitHistory": false },
  { "id": "camp-pendleton", "name": "Camp Pendleton", "lat": 33.30, "lng": -117.35, "region": "conus", "branch": "Marines", "burnPitHistory": false },
  { "id": "jblm", "name": "Joint Base Lewis-McChord", "lat": 47.10, "lng": -122.58, "region": "conus", "branch": "Army", "burnPitHistory": false },
  { "id": "norfolk", "name": "Naval Station Norfolk", "lat": 36.95, "lng": -76.33, "region": "conus", "branch": "Navy", "burnPitHistory": false },
  { "id": "nellis", "name": "Nellis Air Force Base", "lat": 36.24, "lng": -115.04, "region": "conus", "branch": "Air Force", "burnPitHistory": false },
  { "id": "eglin", "name": "Eglin Air Force Base", "lat": 30.47, "lng": -86.53, "region": "conus", "branch": "Air Force", "burnPitHistory": false },
  { "id": "fort-campbell", "name": "Fort Campbell", "lat": 36.66, "lng": -87.47, "region": "conus", "branch": "Army", "burnPitHistory": false },
  { "id": "travis", "name": "Travis Air Force Base", "lat": 38.26, "lng": -121.93, "region": "conus", "branch": "Air Force", "burnPitHistory": false },
  { "id": "pearl-harbor-hickam", "name": "Joint Base Pearl Harbor-Hickam", "lat": 21.35, "lng": -157.97, "region": "indo-pacific", "branch": "Navy", "burnPitHistory": false },
  { "id": "niamey", "name": "Niamey Air Base 101", "lat": 13.48, "lng": 2.18, "region": "africa", "branch": "Air Force", "burnPitHistory": true }
]
