[
  { "id": "camp-arifjan", "name": "Camp Arifjan", "lat": 28.93, "lng": 48.10, "region": "middle-east", "branch": "Army", "burnPitHistory": true, "type": "installation", "state": null },
  { "id": "al-udeid", "name": "Al Udeid Air Base", "lat": 25.12, "lng": 51.31, "region": "middle-east", "branch": "Air Force", "burnPitHistory": true, "type": "installation", "state": null },
  { "id": "al-dhafra", "name": "Al Dhafra Air Base", "lat": 24.25, "lng": 54.55, "region": "middle-east", "branch": "Air Force", "burnPitHistory": true, "type": "installation", "state": null },
  { "id": "camp-buehring", "name": "Camp Buehring", "lat": 29.25, "lng": 47.68, "region": "middle-east", "branch": "Army", "burnPitHistory": true, "type": "installation", "state": null },
  { "id": "ali-al-salem", "name": "Ali Al Salem Air Base", "lat": 29.35, "lng": 47.52, "region": "middle-east", "branch": "Air Force", "burnPitHistory": true, "type": "installation", "state": null },
  { "id": "camp-lemonnier", "name": "Camp Lemonnier", "lat": 11.55, "lng": 43.15, "region": "africa", "branch": "Navy", "burnPitHistory": true, "type": "installation", "state": null },
  { "id": "prince-sultan", "name": "Prince Sultan Air Base", "lat": 24.06, "lng": 47.58, "region": "middle-east", "branch": "Air Force", "burnPitHistory": true, "type": "installation", "state": null },
  { "id": "incirlik", "name": "Incirlik Air Base", "lat": 37.00, "lng": 35.43, "region": "middle-east", "branch": "Air Force", "burnPitHistory": false, "type": "installation", "state": null },
  { "id": "kadena", "name": "Kadena Air Base", "lat": 26.35, "lng": 127.77, "region": "indo-pacific", "branch": "Air Force", "burnPitHistory": false, "type": "installation", "state": null },
  { "id": "yokota", "name": "Yokota Air Base", "lat": 35.75, "lng": 139.35, "region": "indo-pacific", "branch": "Air Force", "burnPitHistory": false, "type": "installation", "state": null },
  { "id": "camp-humphreys", "name": "Camp Humphreys", "lat": 36.96, "lng": 127.03, "region": "indo-pacific", "branch": "Army", "burnPitHistory": false, "type": "installation", "state": null },
  { "id": "andersen", "name": "Andersen Air Force Base", "lat": 13.58, "lng": 144.93, "region": "indo-pacific", "branch": "Air Force", "burnPitHistory": false, "type": "installation", "state": null },
  { "id": "diego-garcia", "name": "Naval Support Facility Diego Garcia", "lat": -7.32, "lng": 72.42, "region": "indo-pacific", "branch": "Navy", "burnPitHistory": true, "type": "installation", "state": null },
  { "id": "ramstein", "name": "Ramstein Air Base", "lat": 49.44, "lng": 7.60, "region": "europe", "branch": "Air Force", "burnPitHistory": false, "type": "installation", "state": null },
  { "id": "aviano", "name": "Aviano Air Base", "lat": 46.03, "lng": 12.60, "region": "europe", "branch": "Air Force", "burnPitHistory": false, "type": "installation", "state": null },
  { "id": "grafenwoehr", "name": "Grafenwoehr Training Area", "lat": 49.69, "lng": 11.94, "region": "europe", "branch": "Army", "burnPitHistory": false, "type": "installation", "state": null },
  { "id": "rota", "name": "Naval Station Rota", "lat": 36.64, "lng": -6.35, "region": "europe", "branch": "Navy", "burnPitHistory": false, "type": "installation", "state": null },
  { "id": "sigonella", "name": "NAS Sigonella", "lat": 37.40, "lng": 14.92, "region": "europe", "branch": "Navy", "burnPitHistory": false, "type": "installation", "state": null },
  { "id": "camp-bondsteel", "name": "Camp Bondsteel", "lat": 42.36, "lng": 21.25, "region": "europe", "branch": "Army", "burnPitHistory": true, "type": "installation", "state": null },
  { "id": "fort-liberty", "name": "Fort Liberty", "lat": 35.14, "lng": -79.00, "region": "conus", "branch": "Army", "burnPitHistory": false, "type": "installation", "state": "NC" },
  { "id": "fort-hood", "name": "Fort Cavazos", "lat": 31.13, "lng": -97.78, "region": "conus", "branch": "Army", "burnPitHistory": false, "type": "installation", "state": "TX" },
  { "id": "camp-pendleton", "name": "Camp Pendleton", "lat": 33.30, "lng": -117.35, "region": "conus", "branch": "Marines", "burnPitHistory": false, "type": "installation", "state": "CA" },
  { "id": "jblm", "name": "Joint Base Lewis-McChord", "lat": 47.10, "lng": -122.58, "region": "conus", "branch": "Army", "burnPitHistory": false, "type": "installation", "state": "WA" },
  { "id": "norfolk", "name": "Naval Station Norfolk", "lat": 36.95, "lng": -76.33, "region": "conus", "branch": "Navy", "burnPitHistory": false, "type": "installation", "state": "VA" },
  { "id": "nellis", "name": "Nellis Air Force Base", "lat": 36.24, "lng": -115.04, "region": "conus", "branch": "Air Force", "burnPitHistory": false, "type": "installation", "state": "NV" },
  { "id": "eglin", "name": "Eglin Air Force Base", "lat": 30.47, "lng": -86.53, "region": "conus", "branch": "Air Force", "burnPitHistory": false, "type": "installation", "state": "FL" },
  { "id": "fort-campbell", "name": "Fort Campbell", "lat": 36.66, "lng": -87.47, "region": "conus", "branch": "Army", "burnPitHistory": false, "type": "installation", "state": "KY" },
  { "id": "travis", "name": "Travis Air Force Base", "lat": 38.26, "lng": -121.93, "region": "conus", "branch": "Air Force", "burnPitHistory": false, "type": "installation", "state": "CA" },
  { "id": "pearl-harbor-hickam", "name": "Joint Base Pearl Harbor-Hickam", "lat": 21.35, "lng": -157.97, "region": "indo-pacific", "branch": "Navy", "burnPitHistory": false, "type": "installation", "state": "HI" },
  { "id": "niamey", "name": "Niamey Air Base 101", "lat": 13.48, "lng": 2.18, "region": "africa", "branch": "Air Force", "burnPitHistory": true, "type": "installation", "state": null },

  { "id": "emb-baghdad", "name": "U.S. Embassy Baghdad", "lat": 33.30, "lng": 44.39, "region": "middle-east", "branch": "State Dept", "burnPitHistory": false, "type": "embassy", "state": null },
  { "id": "emb-amman", "name": "U.S. Embassy Amman", "lat": 31.95, "lng": 35.91, "region": "middle-east", "branch": "State Dept", "burnPitHistory": false, "type": "embassy", "state": null },
  { "id": "emb-riyadh", "name": "U.S. Embassy Riyadh", "lat": 24.71, "lng": 46.67, "region": "middle-east", "branch": "State Dept", "burnPitHistory": false, "type": "embassy", "state": null },
  { "id": "emb-ankara", "name": "U.S. Embassy Ankara", "lat": 39.93, "lng": 32.86, "region": "middle-east", "branch": "State Dept", "burnPitHistory": false, "type": "embassy", "state": null },
  { "id": "emb-beirut", "name": "U.S. Embassy Beirut", "lat": 33.92, "lng": 35.48, "region": "middle-east", "branch": "State Dept", "burnPitHistory": false, "type": "embassy", "state": null },
  { "id": "emb-nairobi", "name": "U.S. Embassy Nairobi", "lat": -1.29, "lng": 36.82, "region": "africa", "branch": "State Dept", "burnPitHistory": false, "type": "embassy", "state": null },
  { "id": "emb-cairo", "name": "U.S. Embassy Cairo", "lat": 30.05, "lng": 31.22, "region": "africa", "branch": "State Dept", "burnPitHistory": false, "type": "embassy", "state": null },
  { "id": "emb-addis-ababa", "name": "U.S. Embassy Addis Ababa", "lat": 9.01, "lng": 38.76, "region": "africa", "branch": "State Dept", "burnPitHistory": false, "type": "embassy", "state": null },
  { "id": "emb-abuja", "name": "U.S. Embassy Abuja", "lat": 9.06, "lng": 7.49, "region": "africa", "branch": "State Dept", "burnPitHistory": false, "type": "embassy", "state": null },
  { "id": "emb-tokyo", "name": "U.S. Embassy Tokyo", "lat": 35.67, "lng": 139.74, "region": "indo-pacific", "branch": "State Dept", "burnPitHistory": false, "type": "embassy", "state": null },
  { "id": "emb-seoul", "name": "U.S. Embassy Seoul", "lat": 37.53, "lng": 126.99, "region": "indo-pacific", "branch": "State Dept", "burnPitHistory": false, "type": "embassy", "state": null },
  { "id": "emb-manila", "name": "U.S. Embassy Manila", "lat": 14.56, "lng": 120.99, "region": "indo-pacific", "branch": "State Dept", "burnPitHistory": false, "type": "embassy", "state": null },
  { "id": "emb-canberra", "name": "U.S. Embassy Canberra", "lat": -35.31, "lng": 149.13, "region": "indo-pacific", "branch": "State Dept", "burnPitHistory": false, "type": "embassy", "state": null },
  { "id": "emb-new-delhi", "name": "U.S. Embassy New Delhi", "lat": 28.60, "lng": 77.20, "region": "indo-pacific", "branch": "State Dept", "burnPitHistory": false, "type": "embassy", "state": null },
  { "id": "emb-berlin", "name": "U.S. Embassy Berlin", "lat": 52.52, "lng": 13.35, "region": "europe", "branch": "State Dept", "burnPitHistory": false, "type": "embassy", "state": null },
  { "id": "emb-london", "name": "U.S. Embassy London", "lat": 51.48, "lng": -0.09, "region": "europe", "branch": "State Dept", "burnPitHistory": false, "type": "embassy", "state": null },
  { "id": "emb-paris", "name": "U.S. Embassy Paris", "lat": 48.86, "lng": 2.31, "region": "europe", "branch": "State Dept", "burnPitHistory": false, "type": "embassy", "state": null },
  { "id": "emb-kyiv", "name": "U.S. Embassy Kyiv", "lat": 50.44, "lng": 30.52, "region": "europe", "branch": "State Dept", "burnPitHistory": false, "type": "embassy", "state": null },
  { "id": "emb-warsaw", "name": "U.S. Embassy Warsaw", "lat": 52.23, "lng": 21.02, "region": "europe", "branch": "State Dept", "burnPitHistory": false, "type": "embassy", "state": null }
]
